City_ID,City,Lat,Lng,Max Temp,Humidity,Cloudiness,Wind Speed,Country,Date
0,happy valley-goose bay,53.3168,53.3168,-7.83,62,40,9.26,CA,1700934166
1,iqaluit,63.7506,63.7506,-8.15,85,100,10.29,CA,1700934167
2,kapuskasing,49.4169,49.4169,1.05,51,20,7.72,CA,1700934168
3,cromwell,41.5951,41.5951,4.41,41,0,2.57,US,1700934168
4,puerto natales,-51.7236,-51.7236,15.25,41,20,13.38,CL,1700934168
5,grytviken,-54.2811,-54.2811,1.86,71,53,3.23,GS,1700934168
6,dahanu,19.9667,19.9667,25.68,75,4,1.6,IN,1700934169
7,las amilpas,16.3667,16.3667,32.46,49,9,3.19,MX,1700934169
8,bilibino,68.0546,68.0546,-9.55,92,100,2.24,RU,1700934169
9,wau,7.7029,7.7029,30.14,48,58,4.52,SS,1700934169
10,kristiansund,63.1115,63.1115,2.03,93,75,2.57,NO,1700934169
11,aykhal,66.0,66.0,-22.12,98,100,3.0,RU,1700934125
12,avarua,-21.2078,-21.2078,25.03,78,75,6.69,CK,1700934170
13,port lincoln,-34.7333,-34.7333,15.6,71,99,4.12,AU,1700934170
14,kenai,60.5544,60.5544,3.38,95,100,4.12,US,1700934170
15,hotan,37.0997,37.0997,5.41,26,77,1.97,CN,1700934171
16,sarmiento,-45.5882,-45.5882,25.2,22,49,15.96,AR,1700934171
17,invercargill,-46.4,-46.4,10.57,90,40,2.24,NZ,1700934171
18,ta`u,-14.2336,-14.2336,27.48,84,92,5.88,AS,1700934171
19,edinburgh of the seven seas,-37.0676,-37.0676,14.52,86,25,10.27,SH,1700934171
20,nar'yan-mar,67.6713,67.6713,-16.61,96,90,2.68,RU,1700934172
21,blackmans bay,-43.0167,-43.0167,13.18,95,100,0.45,AU,1700934172
22,opuwo,-18.0607,-18.0607,24.6,63,95,3.36,NA,1700934172
23,thompson,55.7435,55.7435,-1.91,93,100,3.09,CA,1700934172
24,pasuquin,18.3328,18.3328,24.38,84,21,5.16,PH,1700934173
25,shumikha,55.2261,55.2261,1.09,97,100,4.78,RU,1700934173
26,nova xavantina,-14.6667,-14.6667,37.76,27,79,2.03,BR,1700934173
27,adamstown,-25.066,-25.066,21.95,82,84,9.84,PN,1700934173
28,ushuaia,-54.8,-54.8,16.81,31,75,6.17,AR,1700934018
29,yellowknife,62.456,62.456,-11.71,79,75,5.66,CA,1700934174
30,margaret river,-33.95,-33.95,17.56,62,100,6.41,AU,1700934071
31,huaicheng,23.9051,23.9051,18.65,72,45,0.55,CN,1700934174
32,toliara,-23.35,-23.35,25.91,87,28,1.66,MG,1700934175
33,port mathurin,-19.6833,-19.6833,24.71,66,18,8.27,MU,1700934175
34,vorgashor,67.5833,67.5833,-10.73,89,97,2.99,RU,1700934175
35,port-aux-francais,-49.35,-49.35,4.07,75,17,15.42,TF,1700934175
36,puerto ayora,-0.7393,-0.7393,29.98,87,69,4.02,EC,1700934176
37,qaqortoq,60.7167,60.7167,0.45,99,100,3.25,GL,1700934176
38,gurupi,-11.7292,-11.7292,38.58,24,19,2.55,BR,1700934004
39,udachny,66.4167,66.4167,-23.64,76,100,2.37,RU,1700934176
40,hermanus,-34.4187,-34.4187,17.69,73,98,3.54,ZA,1700934177
41,kodiak,57.79,57.79,5.73,93,100,3.09,US,1700934177
42,jatoba,-9.1831,-9.1831,37.08,17,5,6.51,BR,1700934144
43,belmonte,-15.8631,-15.8631,24.0,89,84,6.32,BR,1700934178
44,waitangi,-43.9535,-43.9535,14.34,98,100,1.79,NZ,1700934178
45,al kharijah,25.4514,25.4514,24.73,21,92,2.89,EG,1700934178
46,parkes,-33.1333,-33.1333,15.75,92,19,3.25,AU,1700934178
47,valday,57.9747,57.9747,-11.04,97,89,1.66,RU,1700934178
48,rundu,-17.9333,-17.9333,26.35,45,70,2.11,NA,1700934179
49,whitehorse,60.7161,60.7161,-2.17,100,100,1.54,CA,1700934166
50,ormara,25.2088,25.2088,24.3,57,73,2.89,PK,1700934179
51,uturoa,-16.7333,-16.7333,26.36,79,77,10.9,PF,1700934179
52,gadzhiyevo,69.2551,69.2551,-5.25,91,100,2.37,RU,1700934180
53,longyearbyen,78.2186,78.2186,-6.09,73,75,5.14,SJ,1700934180
54,hasaki,35.7333,35.7333,8.22,68,94,4.92,JP,1700934180
55,kingston,17.997,17.997,32.91,64,40,1.03,JM,1700934160
56,bethel,41.3712,41.3712,4.19,50,0,3.6,US,1700933957
57,west island,-12.1568,-12.1568,25.99,73,100,7.2,CC,1700934181
58,bredasdorp,-34.5322,-34.5322,17.1,67,100,2.31,ZA,1700934181
59,grand falls-windsor,48.9332,48.9332,-1.39,55,77,0.89,CA,1700934181
60,sarakhs,36.5449,36.5449,17.31,26,0,6.95,IR,1700934181
61,guerrero negro,27.9769,27.9769,19.83,54,85,3.73,MX,1700934182
62,stanley,54.868,54.868,2.25,87,20,2.57,GB,1700934182
63,tobol'sk,58.2,58.2,-9.11,71,87,2.68,RU,1700934182
64,cold lake,54.4502,54.4502,0.97,80,100,7.72,CA,1700934034
65,vadso,70.0744,70.0744,0.49,93,75,7.2,NO,1700934183
66,remire-montjoly,4.9167,4.9167,32.02,66,20,7.72,GF,1700934183
67,viedma,-40.8135,-40.8135,36.22,14,9,7.75,AR,1700934183
68,alice springs,-23.7,-23.7,20.75,56,92,2.57,AU,1700934183
69,tura,25.5198,25.5198,17.62,84,20,1.82,IN,1700934184
70,bikenibeu village,1.3673,1.3673,27.98,89,40,1.03,KI,1700934184
71,san antonio de pale,-1.4014,-1.4014,27.3,81,58,4.18,GQ,1700934184
72,ribeira grande,38.5167,38.5167,20.43,94,75,5.81,PT,1700934184
73,iwye,53.9299,53.9299,-1.52,96,75,3.41,BY,1700934185
74,utrik,11.2278,11.2278,27.53,76,94,8.99,MH,1700934185
75,puerto deseado,-47.7503,-47.7503,23.62,27,49,5.92,AR,1700934185
76,punta arenas,-53.15,-53.15,16.06,36,0,11.83,CL,1700934181
77,mount isa,-20.7333,-20.7333,21.87,94,40,0.0,AU,1700934186
78,atafu village,-8.5421,-8.5421,28.46,76,85,4.21,TK,1700934186
79,lianjiang,21.6467,21.6467,19.19,82,26,3.64,CN,1700934186
80,lebu,-37.6167,-37.6167,14.72,76,52,7.77,CL,1700934186
81,lhuentse,27.6679,27.6679,11.66,79,22,1.74,BT,1700934187
82,fort bragg,35.139,35.139,11.47,51,0,4.63,US,1700934187
83,wewak,-3.5534,-3.5534,26.37,85,67,1.31,PG,1700934187
84,gorontalo,0.5412,0.5412,24.34,95,52,1.59,ID,1700934187
85,priob'ye,62.5206,62.5206,-11.65,96,100,1.5,RU,1700934187
86,port saint john's,-31.6229,-31.6229,21.94,92,100,2.82,ZA,1700934188
87,kayangel,8.0823,8.0823,28.49,78,29,6.28,PW,1700934188
88,ciudad lazaro cardenas,17.9583,17.9583,29.46,52,0,1.65,MX,1700934188
89,olonkinbyen,70.9221,70.9221,-2.15,67,48,8.91,SJ,1700934188
90,ilulissat,69.2167,69.2167,8.01,53,75,7.2,GL,1700934189
91,kolonia town,6.964,6.964,26.0,94,100,2.06,FM,1700934189
92,papatowai,-46.5619,-46.5619,9.78,85,44,2.82,NZ,1700934189
93,arraial do cabo,-22.9661,-22.9661,26.98,53,75,4.63,BR,1700934189
94,viamao,-30.0811,-30.0811,25.93,52,20,4.12,BR,1700934190
95,albany,42.6001,42.6001,3.69,53,28,0.89,US,1700934132
96,hirara,24.8,24.8,21.92,68,99,5.66,JP,1700934190
97,boende,-0.2167,-0.2167,22.23,97,95,0.65,CD,1700934190
98,fale old settlement,-9.3852,-9.3852,28.24,72,100,2.63,TK,1700934191
99,bardai,11.65,11.65,28.34,34,61,2.44,NG,1700934191
100,enriquillo,17.9,17.9,30.82,63,5,4.55,DO,1700934191
101,st. john's,47.5649,47.5649,1.05,85,75,4.63,CA,1700934191
102,amga,60.8953,60.8953,-39.21,100,100,1.01,RU,1700934192
103,hawaiian paradise park,19.5933,19.5933,21.73,94,100,0.0,US,1700934192
104,nemuro,43.3236,43.3236,-1.71,66,18,7.21,JP,1700934192
105,miandrivazo,-19.5167,-19.5167,29.06,63,27,3.15,MG,1700934192
106,carmarthen,51.8555,51.8555,6.61,81,20,2.57,GB,1700934193
107,isafjordur,66.0755,66.0755,4.02,93,75,1.03,IS,1700934193
108,tromso,69.6496,69.6496,-1.99,93,40,2.06,NO,1700934193
109,wailua homesteads,22.0669,22.0669,20.24,94,0,3.6,US,1700934194
110,abu dhabi,24.4667,24.4667,27.75,58,0,2.06,AE,1700934128
111,morehead city,34.7229,34.7229,11.13,74,77,3.58,US,1700934195
112,newport,51.5877,51.5877,3.71,85,97,0.62,GB,1700934195
113,tazovsky,67.4667,67.4667,-22.23,84,4,3.96,RU,1700934196
114,linxia chengguanzhen,35.6003,35.6003,1.88,52,15,1.19,CN,1700934196
115,vila franca do campo,37.7167,37.7167,19.23,99,100,4.55,PT,1700934196
116,yaren,-0.5472,-0.5472,28.88,70,78,2.1,NR,1700934197
117,port elizabeth,-33.918,-33.918,20.17,84,100,2.57,ZA,1700934197
118,khachrod,23.4167,23.4167,19.22,41,58,3.65,IN,1700934197
119,tolanaro,-25.0319,-25.0319,25.04,69,20,11.83,MG,1700934198
120,college,64.8569,64.8569,-5.31,89,75,0.0,US,1700934198
121,san lorenzo,-25.3333,-25.3333,26.52,74,100,3.6,PY,1700934198
122,frenda,35.0654,35.0654,10.43,33,7,2.28,DZ,1700934199
123,aasiaat,68.7098,68.7098,-2.03,93,100,3.93,GL,1700934199
124,camrose,53.0168,53.0168,2.17,69,76,8.65,CA,1700934199
125,tiksi,71.6872,71.6872,-24.62,96,99,1.14,RU,1700934200
126,genlis,47.242,47.242,3.12,87,75,2.57,FR,1700934200
127,usinsk,65.9939,65.9939,-22.75,100,77,0.08,RU,1700934201
128,lorengau,-2.0226,-2.0226,27.08,78,59,1.26,PG,1700934202
129,vila velha,-20.3297,-20.3297,25.97,61,20,8.05,BR,1700934203
130,santa vitoria do palmar,-33.5189,-33.5189,19.77,57,96,4.56,BR,1700934203
131,lihue,21.9789,21.9789,20.58,94,0,3.6,US,1700934203
132,pisco,-13.7,-13.7,22.23,68,0,4.63,PE,1700934204
133,hobyo,5.3505,5.3505,28.13,75,44,6.9,SO,1700934204
134,perry,37.2506,37.2506,14.1,51,21,0.33,US,1700934205
135,khandyga,62.6667,62.6667,-38.11,98,100,0.26,RU,1700934205
136,truth or consequences,33.1284,33.1284,14.95,36,0,5.14,US,1700934205
137,blagoveshchensk,50.2667,50.2667,-19.66,54,0,2.0,RU,1700934205
138,ofunato,39.0717,39.0717,2.8,81,69,3.5,JP,1700934206
139,klaksvik,62.2266,62.2266,4.51,74,100,4.86,FO,1700934207
140,codrington,-38.2667,-38.2667,13.3,91,100,6.33,AU,1700934207
141,port moresby,-9.4431,-9.4431,25.68,89,75,1.54,PG,1700934207
142,port loko,8.7667,8.7667,29.82,67,72,2.37,SL,1700934207
143,susuman,62.7833,62.7833,-27.56,94,99,2.05,RU,1700934207
144,tougan,13.0667,13.0667,29.98,13,73,1.69,BF,1700934208
145,neyshabur,36.2133,36.2133,10.53,22,2,0.24,IR,1700934208
146,kuqa,41.7278,41.7278,3.61,37,3,1.27,CN,1700934208
147,chonchi,-42.6128,-42.6128,12.56,51,72,0.71,CL,1700934208
148,nguigmi,14.2495,14.2495,28.17,30,41,3.5,NE,1700934209
149,bethanie,-26.4833,-26.4833,29.94,14,0,9.18,NA,1700934209
150,tazacorte,28.629,28.629,21.54,72,75,4.12,ES,1700934210
151,hithadhoo,-0.6,-0.6,27.46,77,60,1.63,MV,1700934210
152,nuuk,64.1835,64.1835,2.34,75,75,19.55,GL,1700934210
153,barinitas,8.7622,8.7622,30.21,51,93,2.83,VE,1700934211
154,jamestown,42.097,42.097,2.77,64,0,0.0,US,1700934211
155,emiliano zapata,18.8333,18.8333,25.92,57,0,0.0,MX,1700934211
156,kalachinsk,55.0529,55.0529,-4.26,95,97,4.18,RU,1700934211
157,ocean shores,46.9737,46.9737,6.12,91,20,4.47,US,1700934212
158,thinadhoo,0.5333,0.5333,27.35,78,83,2.23,MV,1700934212
159,adre,13.4667,13.4667,28.47,26,48,1.3,TD,1700934212
160,salinopolis,-0.6136,-0.6136,29.98,67,61,6.17,BR,1700934212
161,coahuayana de hidalgo,18.7,18.7,30.7,44,1,0.7,MX,1700934213
162,illizi,26.4833,26.4833,18.89,37,0,1.65,DZ,1700934213
163,egilsstadir,65.2653,65.2653,0.95,93,0,1.54,IS,1700934213
164,kolonia,50.9333,50.9333,6.87,82,100,7.72,DE,1700934213
165,vorkuta,67.5,67.5,-10.69,89,100,2.36,RU,1700934214
166,gaigeturi,33.4644,33.4644,5.03,70,0,2.57,KR,1700934214
167,fredericksburg,38.3032,38.3032,7.4,48,0,11.18,US,1700934191
168,antsiranana,-12.2787,-12.2787,26.07,77,86,6.8,MG,1700934214
169,birjand,32.8663,32.8663,10.26,50,0,6.17,IR,1700934098
170,olinda,-8.0089,-8.0089,29.85,58,40,5.66,BR,1700934215
171,haiku-pauwela,20.9219,20.9219,25.58,87,20,2.57,US,1700934215
172,east london,-33.0153,-33.0153,20.87,92,100,5.06,ZA,1700934176
173,afaahiti,-17.75,-17.75,26.93,75,97,9.49,PF,1700934215
174,talca,-35.4333,-35.4333,28.45,36,0,2.05,CL,1700933975
175,tucuma,-0.1833,-0.1833,32.68,53,27,3.56,BR,1700933927
176,vilyuchinsk,52.9306,52.9306,-5.6,77,23,6.51,RU,1700934216
177,znamenskoye,57.1281,57.1281,-12.42,98,35,2.15,RU,1700934216
178,fortuna,40.5982,40.5982,4.51,93,0,3.6,US,1700934217
179,sao vicente,-23.9631,-23.9631,21.26,70,100,1.54,BR,1700934217
180,badger,64.8,64.8,-5.91,90,100,0.0,US,1700934217
181,hammerfest,70.6634,70.6634,1.25,93,100,5.66,NO,1700934217
182,bengkulu,-3.8004,-3.8004,24.14,94,100,0.39,ID,1700934218
183,hakui,36.8833,36.8833,3.47,80,78,2.29,JP,1700934218
184,rosarito,32.3333,32.3333,18.47,46,0,1.79,MX,1700934218
185,timbuktu,16.7735,16.7735,26.57,11,3,3.48,ML,1700934218
186,la passe,45.5549,45.5549,6.13,69,80,2.7,FR,1700934219
187,katsuren-haebaru,26.3369,26.3369,21.01,88,75,3.6,JP,1700934219
188,jamaame,0.0697,0.0697,26.3,84,90,2.74,SO,1700934219
189,anadyr,64.75,64.75,-2.72,92,75,8.0,RU,1700934219
190,kijang,35.2442,35.2442,0.85,41,44,2.36,KR,1700934220
191,imbituba,-28.24,-28.24,21.36,63,61,3.52,BR,1700934220
192,laguna,38.421,38.421,15.05,58,0,4.63,US,1700934220
193,inari,68.906,68.906,-0.89,96,100,3.57,FI,1700934220
194,mhamid,29.82,29.82,17.01,27,100,1.69,MA,1700934220
195,kismayo,-0.3582,-0.3582,27.31,80,94,3.71,SO,1700934221
196,iskateley,67.6803,67.6803,-16.66,96,86,2.68,RU,1700934221
197,island harbour,50.724,50.724,3.45,83,42,3.03,GB,1700934221
198,cascais,38.6979,38.6979,16.63,78,20,6.26,PT,1700933966
199,sinabang,2.4803,2.4803,25.75,84,100,2.23,ID,1700934222
200,ginir,7.1333,7.1333,15.46,60,70,1.79,ET,1700934222
201,cunit,41.1983,41.1983,15.35,87,81,0.45,ES,1700934222
202,mahibadhoo,3.7833,3.7833,28.0,70,82,0.75,MV,1700934222
203,el golaa,33.4849,33.4849,17.61,48,2,4.14,TN,1700934223
204,noosa heads,-26.3833,-26.3833,19.5,76,98,1.51,AU,1700934223
205,chui,-33.6971,-33.6971,19.4,57,98,4.55,UY,1700934132
206,georgetown,5.4112,5.4112,26.96,87,20,2.06,MY,1700933983
207,vanimo,-2.6741,-2.6741,25.33,89,56,1.02,PG,1700934224
208,hassi messaoud,31.6804,31.6804,16.92,31,0,1.54,DZ,1700934224
209,alofi,-19.0595,-19.0595,25.94,94,98,2.57,NU,1700934224
210,nouadhibou,20.931,20.931,19.29,78,19,11.0,MR,1700934224
211,torghay,49.6339,49.6339,-0.18,83,100,5.88,KZ,1700934225
212,puerto gaitan,4.3133,4.3133,33.01,47,91,5.3,CO,1700934225
213,totness,5.8833,5.8833,28.47,73,51,5.56,SR,1700934225
214,fisterra,42.9049,42.9049,12.64,78,65,2.14,ES,1700934226
215,guajara mirim,-10.7828,-10.7828,27.09,78,75,3.6,BR,1700934226
216,pesaro,43.9036,43.9036,11.64,42,54,1.79,IT,1700934226
217,klyuchi,52.2667,52.2667,-0.17,50,96,5.09,RU,1700934226
218,kampong pangkal kalong,5.9167,5.9167,23.88,99,100,0.7,MY,1700934226
219,nanao,37.05,37.05,3.51,80,90,2.53,JP,1700934227
220,kavaratti,10.5669,10.5669,28.74,72,87,3.63,IN,1700934227
221,talakan,50.3167,50.3167,-21.85,97,8,1.55,RU,1700934227
222,vrangel',42.7297,42.7297,-6.08,43,37,1.75,RU,1700934227
223,kotido,2.9806,2.9806,25.51,51,100,6.17,UG,1700934228
224,queenstown,-31.8976,-31.8976,18.39,85,82,3.98,ZA,1700934228
225,nuriootpa,-34.4833,-34.4833,15.28,74,57,3.33,AU,1700934228
226,bonny,4.4522,4.4522,27.72,81,80,3.73,NG,1700934228
227,port alfred,-33.5906,-33.5906,18.43,98,100,3.76,ZA,1700934228
228,howard springs,-12.497,-12.497,26.95,96,99,2.07,AU,1700934229
229,vakfikebir,41.0458,41.0458,18.93,62,100,3.53,TR,1700934229
230,ji'an,27.1172,27.1172,11.15,77,0,1.57,CN,1700934229
231,sanming,26.2486,26.2486,12.81,91,19,0.62,CN,1700934230
232,ikalamavony,-21.15,-21.15,22.92,73,27,3.01,MG,1700934230
233,dudinka,69.4058,69.4058,-28.39,100,24,1.65,RU,1700934230
234,namibe,-15.1961,-15.1961,24.38,81,87,0.66,AO,1700934230
235,salug,8.1147,8.1147,25.4,89,100,3.58,PH,1700934231
236,reggane,26.7158,26.7158,18.3,24,69,2.27,DZ,1700934231
237,kharp,66.8014,66.8014,-12.72,95,100,4.33,RU,1700934231
238,piti village,13.4626,13.4626,28.49,82,20,5.66,GU,1700934231
239,coquimbo,-29.9533,-29.9533,16.85,72,75,5.14,CL,1700934232
240,shawinigan,46.5668,46.5668,-2.77,68,51,4.63,CA,1700934232
241,labytnangi,66.6572,66.6572,-13.94,95,100,6.15,RU,1700934232
242,lewistown,40.5992,40.5992,5.1,75,0,2.06,US,1700934232
243,polyarnyy,69.1989,69.1989,-5.18,89,100,2.39,RU,1700934232
244,kargalinskaya,43.7417,43.7417,9.32,82,51,1.43,RU,1700934233
245,port isabel,26.0734,26.0734,24.48,82,100,5.14,US,1700934233
246,martapura,-3.4167,-3.4167,24.05,100,100,1.54,ID,1700934233
247,rudbar,30.15,30.15,15.54,68,92,2.41,AF,1700934234
248,tralee,52.2704,52.2704,10.14,87,75,3.09,IE,1700934234
249,lira,2.235,2.235,21.53,75,99,1.42,UG,1700934234
250,lompoc,34.6391,34.6391,17.66,69,0,3.6,US,1700934234
251,pechora,65.1472,65.1472,-20.26,99,98,1.04,RU,1700934234
252,ust-nera,64.5667,64.5667,-33.24,99,84,2.69,RU,1700934168
253,luderitz,-26.6481,-26.6481,19.2,63,2,9.13,NA,1700934235
254,tvoroyri,61.5556,61.5556,6.78,69,99,5.62,FO,1700934235
255,vernon,50.2581,50.2581,3.67,83,82,1.34,CA,1700934008
256,espinho,41.0076,41.0076,13.97,83,0,1.54,PT,1700934236
257,lobito,-12.3481,-12.3481,25.76,85,100,3.33,AO,1700934236
258,kampene,-3.6,-3.6,20.04,99,73,0.44,CD,1700934236
259,mildura,-34.2,-34.2,15.6,83,5,3.96,AU,1700934236
260,luena,-11.7833,-11.7833,18.22,93,92,1.88,AO,1700934237
261,quellon,-43.1167,-43.1167,14.12,61,83,5.07,CL,1700934237
262,kill devil hills,36.0307,36.0307,11.1,72,100,8.75,US,1700934237
263,akureyri,65.6835,65.6835,2.96,87,0,1.03,IS,1700934237
264,suntar,62.1444,62.1444,-33.8,100,95,1.29,RU,1700934238
265,libertad,8.9442,8.9442,22.87,94,88,1.58,PH,1700934238
266,dryden,49.7833,49.7833,-4.84,58,100,5.66,CA,1700934238
267,new norfolk,-42.7826,-42.7826,13.84,99,100,1.48,AU,1700934238
268,newman,37.3138,37.3138,10.13,51,0,0.89,US,1700934239
269,berber,18.0216,18.0216,31.26,20,74,3.93,SD,1700934239
270,duyun,26.2667,26.2667,14.41,98,99,0.98,CN,1700934239
271,rabaul,-4.1967,-4.1967,26.29,82,36,2.05,PG,1700934239
272,az zubayr,30.3945,30.3945,18.88,33,88,0.62,IQ,1700934239
273,vostochnyy,55.8167,55.8167,-5.04,98,54,1.18,RU,1700934240
274,oak ridge,36.0104,36.0104,15.24,56,0,0.89,US,1700934240
275,papao,-17.75,-17.75,27.82,76,69,11.0,PF,1700934240
276,cabo san lucas,22.8909,22.8909,28.06,63,0,1.54,MX,1700934241
277,carnarvon,-24.8667,-24.8667,21.03,78,1,5.53,AU,1700934241
278,moose jaw,50.4001,50.4001,-0.86,69,20,7.72,CA,1700934241
279,parchim,53.4263,53.4263,2.62,76,63,4.9,DE,1700934241
280,mukalla,14.5425,14.5425,26.13,71,64,0.92,YE,1700934242
281,saldanha,-33.0117,-33.0117,20.03,78,67,9.63,ZA,1700934242
282,asentamiento humano nicolas de pierola,-11.95,-11.95,18.41,53,72,4.82,PE,1700934242
283,pea ridge,38.414,38.414,8.88,61,14,1.79,US,1700934243
284,sosnovka,56.255,56.255,0.74,91,100,3.93,RU,1700934243
285,muli,2.9167,2.9167,27.87,73,47,2.28,MV,1700934243
286,madera,37.1666,37.1666,16.65,58,0,1.26,US,1700934243
287,novyy urengoy,66.0833,66.0833,-20.66,81,0,4.91,RU,1700934244
288,howrah,22.5892,22.5892,22.0,73,40,2.57,IN,1700934210
289,weihai,37.5017,37.5017,5.23,89,100,4.0,CN,1700934244
290,al wajh,26.2455,26.2455,24.97,65,0,1.54,SA,1700934244
291,balcarce,-37.8462,-37.8462,30.89,34,42,2.24,AR,1700934244
292,hamilton,39.1834,39.1834,7.03,59,0,2.68,US,1700934167
293,port-vila,-17.7338,-17.7338,17.78,100,20,1.03,VU,1700934245
294,jaguariaiva,-24.2511,-24.2511,13.22,96,100,2.45,BR,1700934245
295,rongelap,11.1635,11.1635,27.8,74,86,8.71,MH,1700934245
296,aioun,16.6614,16.6614,27.95,11,1,3.3,MR,1700934246
297,hugo,45.16,45.16,-0.6,50,75,3.6,US,1700934246
298,galveston,29.3669,29.3669,18.43,74,75,6.69,US,1700934062
299,kerikeri,-35.2268,-35.2268,13.1,86,19,3.1,NZ,1700934246
300,hadibu,12.65,12.65,26.26,72,21,4.58,YE,1700934247
301,dolores,-36.3132,-36.3132,29.37,23,95,5.4,AR,1700934247
302,nikolayevsk-on-amure,53.1406,53.1406,-18.14,71,84,6.25,RU,1700934247
303,manali,13.1667,13.1667,27.82,80,84,5.52,IN,1700934248
304,baker city,44.7749,44.7749,1.47,86,0,1.54,US,1700934248
305,palikir - national government center,6.9248,6.9248,25.41,94,100,2.06,FM,1700934248
306,vernal,40.4555,40.4555,-5.38,79,100,3.09,US,1700934120
307,saint-joseph,-21.3667,-21.3667,24.21,76,43,4.73,RE,1700934248
308,inhambane,-23.865,-23.865,25.99,89,20,3.6,MZ,1700934249
309,corinto,37.9407,37.9407,16.73,69,29,9.4,GR,1700934249
310,touros,-5.1989,-5.1989,28.69,58,18,6.85,BR,1700934249
311,nakasongola,1.3089,1.3089,20.68,80,85,1.83,UG,1700934249
312,palma sola,-23.9634,-23.9634,28.78,31,34,3.37,AR,1700934250
313,margate,51.3813,51.3813,4.83,78,84,4.02,GB,1700934076
314,al jawf,29.5,29.5,20.58,26,99,4.04,SA,1700934250
315,tsengel,49.4783,49.4783,-8.56,83,100,2.74,MN,1700934251
316,male,4.1748,4.1748,26.97,89,20,0.51,MV,1700934251
317,banyo,6.75,6.75,22.83,72,89,0.8,CM,1700934251
318,dame-marie,18.5667,18.5667,28.41,66,22,0.92,HT,1700934251
319,sirte,31.2089,31.2089,20.67,46,16,11.64,LY,1700934252
320,bodo,67.28,67.28,-6.98,80,20,5.14,NO,1700934252
321,msanga,-6.05,-6.05,22.96,64,99,3.32,TZ,1700934252
322,sisimiut,66.9395,66.9395,1.09,91,98,3.39,GL,1700934252
323,troitsk,54.0979,54.0979,0.01,88,100,4.02,RU,1700934253
324,chabahar,25.2919,25.2919,24.14,50,16,1.36,IR,1700934253
325,jeddah,21.5169,21.5169,29.92,58,0,2.06,SA,1700934253
326,bakanas,44.8081,44.8081,4.18,47,19,3.84,KZ,1700934253
327,saipan,15.1355,15.1355,28.39,83,40,6.69,MP,1700934254
328,san sebastian de la gomera,28.0916,28.0916,23.54,49,40,3.6,ES,1700934254
329,itamaraca,-7.7478,-7.7478,30.03,60,30,5.15,BR,1700934254
330,dunedin,-45.8742,-45.8742,10.45,79,13,0.45,NZ,1700934254
331,ciudad bolivar,8.1222,8.1222,31.42,53,100,4.57,VE,1700934255
332,kelo,9.3086,9.3086,30.21,26,84,0.91,TD,1700934255
333,mount gambier,-37.8333,-37.8333,12.68,91,98,3.98,AU,1700934255
334,krasnyy yar,46.5331,46.5331,9.98,84,80,4.18,RU,1700934256
335,alaghsas,17.0187,17.0187,30.94,16,99,1.54,NE,1700934256
336,bida,9.0833,9.0833,29.55,57,86,1.69,NG,1700934256
337,el calafate,-50.3408,-50.3408,13.53,45,43,13.13,AR,1700934256
338,saurimo,-9.6608,-9.6608,19.27,93,94,1.98,AO,1700934257
339,inderbor,48.55,48.55,7.72,85,100,4.77,KZ,1700934257
340,enchanted hills,35.3368,35.3368,3.89,85,94,2.31,US,1700934257
341,rufino,-34.2683,-34.2683,33.31,19,10,6.35,AR,1700934257
342,lalibela,12.0333,12.0333,15.46,42,26,3.75,ET,1700934258
343,colonia,50.9333,50.9333,6.87,82,100,7.72,DE,1700934211
344,brisas de zicatela,15.8369,15.8369,30.29,54,0,2.06,MX,1700934258
345,salcininkai,54.3,54.3,-0.65,98,76,2.66,LT,1700934258
346,huarmey,-10.0681,-10.0681,23.04,72,77,4.85,PE,1700934259
347,san isidro de curuguaty,-24.5167,-24.5167,21.74,97,100,2.16,PY,1700934259
348,betio village,1.358,1.358,28.02,73,78,2.61,KI,1700934259
349,aljezur,37.3191,37.3191,13.02,84,7,3.23,PT,1700934260
350,sampit,-2.5333,-2.5333,23.7,99,100,0.71,ID,1700934260
351,novodvinsk,64.4165,64.4165,-15.68,99,100,1.2,RU,1700934260
352,iquique,-20.2208,-20.2208,21.02,68,91,3.36,CL,1700934260
353,ati,13.2154,13.2154,31.51,19,76,3.51,TD,1700934261
354,waseca,44.0777,44.0777,-0.88,55,100,3.6,US,1700934261
355,sterling,39.0062,39.0062,6.42,48,0,3.09,US,1700934222
356,san alberto,7.7611,7.7611,29.54,74,92,1.68,CO,1700934261
357,bel ombre,-4.6167,-4.6167,28.91,74,20,5.66,SC,1700934261
358,perelyub,51.8667,51.8667,1.71,96,100,3.13,RU,1700934262
359,zonguldak,41.25,41.25,11.61,71,100,3.45,TR,1700934262
360,rapid valley,44.0625,44.0625,0.35,70,100,4.02,US,1700934262
361,enewetak,11.3474,11.3474,27.88,75,34,10.04,MH,1700934262
362,manismata,-2.4667,-2.4667,23.91,97,99,0.96,ID,1700934263
363,simanggang,1.2472,1.2472,25.99,94,100,0.0,MY,1700934083
364,williston,48.147,48.147,-1.59,72,18,2.24,US,1700934263
365,priargunsk,50.3691,50.3691,-30.6,100,93,0.82,RU,1700934263
366,el nido,11.1858,11.1858,27.82,82,89,6.23,PH,1700934264
367,mokhsogollokh,61.4681,61.4681,-31.67,99,90,1.48,RU,1700934264
368,divrigi,39.371,39.371,7.91,90,100,4.17,TR,1700934264
369,minbu,20.1833,20.1833,21.22,82,16,2.6,MM,1700934264
370,kununurra,-15.7667,-15.7667,23.99,94,100,2.57,AU,1700934265
371,cururupu,-1.8283,-1.8283,32.04,51,26,3.82,BR,1700934265
372,atakpame,7.5333,7.5333,23.52,89,98,0.45,TG,1700934265
373,nichinan,31.6,31.6,6.82,78,25,2.41,JP,1700934265
374,sitka,57.0531,57.0531,7.94,93,100,1.54,US,1700934265
375,cooper's town,26.8667,26.8667,24.22,78,61,4.94,BS,1700934266
376,santa maria,-29.6842,-29.6842,25.61,47,0,6.17,BR,1700934188
377,ovada,44.6384,44.6384,9.75,39,0,0.74,IT,1700934266
378,keflavik,64.0049,64.0049,7.24,93,100,3.09,IS,1700934266
379,priozersk,61.0393,61.0393,-5.51,85,95,1.51,RU,1700934267
380,santana,-0.0583,-0.0583,35.1,49,20,6.17,BR,1700934267
381,villa independencia,-31.4559,-31.4559,30.61,33,2,8.94,AR,1700934267
382,pizarro,4.9533,4.9533,28.33,72,72,2.46,CO,1700934267
383,taltal,-25.4,-25.4,19.73,66,8,3.46,CL,1700934268
384,pacific grove,36.6177,36.6177,15.91,49,0,2.68,US,1700934258
385,talnakh,69.4865,69.4865,-22.73,98,39,2.63,RU,1700934268
386,waingapu,-9.6567,-9.6567,27.04,79,100,1.34,ID,1700934268
387,puerto san jose,13.9256,13.9256,29.32,69,98,2.32,GT,1700934269
388,ugoofaaru,5.6667,5.6667,28.35,72,74,2.1,MV,1700934269
389,al kharj,24.155,24.155,23.32,57,78,5.63,SA,1700934269
390,kodinsk,58.6881,58.6881,-21.36,99,53,1.43,RU,1700934269
391,mega,4.05,4.05,19.05,68,83,3.68,ET,1700934270
392,nova granada,-20.5339,-20.5339,30.14,38,84,3.47,BR,1700934270
393,sur,22.5667,22.5667,25.32,65,25,1.47,OM,1700934271
394,camiri,-20.05,-20.05,22.88,78,100,0.0,BO,1700934271
395,carloforte,39.145,39.145,13.85,58,28,8.46,IT,1700934271
396,shakawe,-18.3667,-18.3667,28.45,39,52,1.57,BW,1700934271
397,mar del plata,-38.0023,-38.0023,31.57,50,0,6.71,AR,1700934243
398,ornskoldsvik,63.2909,63.2909,-2.47,80,75,4.63,SE,1700934272
399,graulhet,43.7669,43.7669,5.19,77,9,1.97,FR,1700934272
400,yauya,-8.9833,-8.9833,18.14,43,73,2.46,PE,1700934272
401,bikaner,28.0167,28.0167,21.02,23,100,4.0,IN,1700934272
402,cole harbour,44.6724,44.6724,-1.83,49,27,6.69,CA,1700934273
403,murzuq,25.9155,25.9155,15.11,39,0,3.49,LY,1700934273
404,constantia,44.1833,44.1833,4.38,91,100,12.94,RO,1700934273
405,port douglas,-16.4833,-16.4833,24.8,84,95,2.09,AU,1700934044
406,bokoro,12.3807,12.3807,31.72,20,88,2.9,TD,1700934274
407,tingi,-11.3,-11.3,22.38,61,78,2.15,TZ,1700934274
408,pajeczno,51.1445,51.1445,-0.18,93,100,4.41,PL,1700934274
409,tshabong,-26.05,-26.05,34.08,22,23,3.24,BW,1700934274
410,slave lake,55.2834,55.2834,-0.01,74,100,4.63,CA,1700934275
411,sibu,2.3,2.3,26.17,94,40,0.0,MY,1700934275
412,igarka,67.4667,67.4667,-27.46,98,22,1.5,RU,1700934275
413,prince rupert,54.3161,54.3161,6.83,100,100,1.54,CA,1700934275
414,awjilah,29.1081,29.1081,17.43,41,0,5.23,LY,1700934275
415,kimbe,-5.5502,-5.5502,24.29,94,54,1.23,PG,1700934276
416,cova figueira,14.8905,14.8905,23.09,72,0,7.3,CV,1700934276
417,kailua-kona,19.6406,19.6406,23.66,77,0,2.06,US,1700934276
418,bar,49.0772,49.0772,-0.6,78,100,2.62,UA,1700934276
419,mana,5.6592,5.6592,29.31,69,44,5.22,GF,1700934277
420,yeppoon,-23.1333,-23.1333,20.88,80,99,2.62,AU,1700934277
421,sindhnur,15.7833,15.7833,25.54,69,100,3.29,IN,1700934277
422,petropavlovsk-kamchatsky,53.0452,53.0452,-6.42,69,20,11.62,RU,1700934277
423,itarsi,22.6167,22.6167,17.57,44,0,2.57,IN,1700934278
424,wusong,30.95,30.95,9.9,64,21,1.83,CN,1700934278
425,lamesa,32.7376,32.7376,4.73,85,100,4.63,US,1700934278
426,hot springs village,34.6655,34.6655,8.94,66,100,2.12,US,1700934278
427,akjoujt,19.6969,19.6969,27.48,12,0,3.61,MR,1700934279
428,batie,9.8833,9.8833,30.99,43,78,2.61,BF,1700934279
429,nagqu,31.5,31.5,-11.41,31,5,1.55,CN,1700934279
430,ulladulla,-35.35,-35.35,13.76,77,19,3.56,AU,1700934279
431,bestobe,52.4994,52.4994,1.0,71,93,8.86,KZ,1700934280
432,jinchang,38.4953,38.4953,4.56,23,8,3.02,CN,1700934280
433,chenzhou,25.8,25.8,12.18,91,2,1.25,CN,1700934280
434,zambezi,-13.5432,-13.5432,20.64,77,67,1.64,ZM,1700934280
435,caleta de carquin,-11.0925,-11.0925,21.99,73,95,4.33,PE,1700934280
436,mankono,8.0586,8.0586,28.3,59,92,2.48,CI,1700934281
437,kyshtovka,56.555,56.555,-11.48,89,56,3.13,RU,1700934281
438,santiago de cao,-7.9589,-7.9589,22.07,73,75,5.14,PE,1700934281
439,parham,17.0968,17.0968,28.83,77,40,3.6,AG,1700934281
440,conception bay south,47.4999,47.4999,0.41,82,75,4.12,CA,1700934282
441,ondjiva,-17.0667,-17.0667,23.38,67,97,3.13,AO,1700934282
442,severo-yeniseyskiy,60.3725,60.3725,-29.41,100,8,1.38,RU,1700934282
443,weno,7.4515,7.4515,27.97,94,100,3.6,FM,1700934282
444,ashland,40.8167,40.8167,2.9,79,28,2.36,US,1700934243
445,fort st. john,56.2499,56.2499,0.94,93,75,2.06,CA,1700934111
446,karasburg,-28.0167,-28.0167,29.58,10,4,6.83,NA,1700934283
447,santa ana,33.7456,33.7456,19.14,52,0,1.54,US,1700934177
448,jiazi,22.8779,22.8779,18.09,80,12,6.12,CN,1700934283
449,yantarnyy,54.8717,54.8717,-0.08,58,100,10.03,RU,1700934284
450,salumbar,24.1333,24.1333,21.71,41,97,2.17,IN,1700934284
451,natchitoches,31.7668,31.7668,13.99,62,0,2.06,US,1700934284
452,chernogorsk,53.8236,53.8236,-2.24,64,0,6.0,RU,1700934284
453,bhasawar,27.0333,27.0333,18.39,42,87,1.53,IN,1700934285
454,ribeira brava,32.65,32.65,21.35,52,74,0.91,PT,1700934285
455,tarko-sale,64.9225,64.9225,-19.76,78,0,6.18,RU,1700934285
456,chernyshevskiy,63.0128,63.0128,-36.41,100,41,0.95,RU,1700934285
457,beira,-19.8436,-19.8436,27.05,88,20,5.36,MZ,1700934286
458,sandy,40.572,40.572,2.03,71,0,1.79,US,1700934286
459,laghouat,33.8,33.8,13.94,22,6,2.78,DZ,1700934286
460,sandnessjoen,66.0217,66.0217,-18.6,76,9,4.58,NO,1700934286
461,pandan,14.0453,14.0453,26.19,88,80,4.96,PH,1700934286
462,padang,-0.9492,-0.9492,25.03,85,100,1.54,ID,1700934287
463,chifeng,42.2683,42.2683,-6.87,45,0,2.27,CN,1700934287
464,sao joao da barra,-21.6403,-21.6403,26.05,66,95,6.79,BR,1700934287
465,kapa'a,22.0752,22.0752,20.99,94,0,3.6,US,1700934287
466,erenhot,43.6475,43.6475,-9.37,76,44,2.0,CN,1700934288
467,ancud,-41.8697,-41.8697,13.36,68,59,3.93,CL,1700934288
468,sovetskaya gavan',48.9723,48.9723,-16.05,58,2,6.78,RU,1700934288
469,westport,41.1415,41.1415,4.71,44,0,2.06,US,1700934288
470,eyl,7.9803,7.9803,26.68,75,52,8.86,SO,1700934288
471,minot air force base,48.4209,48.4209,-1.68,59,40,7.2,US,1700934289
472,lata,40.1629,40.1629,13.78,84,85,1.0,PT,1700934289
473,northam,51.0333,51.0333,7.59,86,98,1.39,GB,1700934289
474,zilair,52.2332,52.2332,1.64,99,100,3.38,RU,1700934289
475,malvan,16.0667,16.0667,27.31,77,93,1.37,IN,1700934290
476,chardara,41.2547,41.2547,10.97,53,84,3.12,KZ,1700934290
477,ndjole,-0.1783,-0.1783,25.72,90,92,1.14,GA,1700934290
478,jiuquan,39.7432,39.7432,0.84,35,13,1.96,CN,1700934290
479,el granada,37.5027,37.5027,14.02,43,0,11.32,US,1700934182
480,amroha,28.9167,28.9167,17.58,37,54,1.11,IN,1700934291
481,gaoual,11.75,11.75,29.7,38,68,1.61,GN,1700934291
482,talcahuano,-36.7167,-36.7167,16.82,72,0,3.09,CL,1700934292
483,walvis bay,-22.9575,-22.9575,17.83,78,21,5.78,NA,1700934292
484,villa regina,-39.1,-39.1,37.77,11,0,1.79,AR,1700934292
485,robore,-18.3333,-18.3333,27.46,74,99,1.26,BO,1700934292
486,zheleznogorsk-ilimskiy,56.5768,56.5768,-18.58,98,100,1.13,RU,1700934293
487,gao,16.6362,16.6362,25.77,11,47,3.81,ML,1700934293
488,sturgeon bay,44.8342,44.8342,0.22,55,0,4.12,US,1700934293
489,sydney mines,46.2367,46.2367,0.1,77,75,8.75,CA,1700934293
490,palmer,42.1584,42.1584,3.12,35,40,0.45,US,1700934293
491,usogorsk,63.4106,63.4106,-14.07,96,100,1.83,RU,1700934294
492,kenora,49.8167,49.8167,-5.46,63,75,4.63,CA,1700934294
493,banda aceh,5.5577,5.5577,25.91,83,100,2.2,ID,1700934294
494,carutapera,-1.195,-1.195,30.94,59,40,5.22,BR,1700934294
495,al hawatah,13.4167,13.4167,33.26,23,5,3.41,SD,1700934295
496,nenjiang,49.1833,49.1833,-21.11,96,95,1.69,CN,1700934295
497,altai,46.3722,46.3722,-8.65,70,39,2.01,MN,1700934295
498,rio grande,-32.035,-32.035,24.06,62,82,4.41,BR,1700934296
499,sergeyevka,53.88,53.88,1.1,98,100,7.68,KZ,1700934296
500,doka,13.5167,13.5167,30.0,26,3,3.71,SD,1700934296
501,mata-utu,-13.2816,-13.2816,28.16,76,100,4.49,WF,1700934296
502,tosontsengel,48.7567,48.7567,-9.78,93,100,2.8,MN,1700934296
503,tsiombe,-25.3,-25.3,24.39,79,0,2.08,MG,1700934297
504,santa maria de cayon,43.3079,43.3079,12.28,87,20,2.57,ES,1700934297
505,cobija,-11.0267,-11.0267,27.1,83,100,2.57,BO,1700934297
506,sisophon,13.5859,13.5859,24.96,67,100,3.11,KH,1700934297
507,nelson bay,-32.7167,-32.7167,19.44,95,100,2.24,AU,1700934298
508,tabira,-7.5908,-7.5908,36.84,11,6,3.7,BR,1700934298
509,swift current,50.2834,50.2834,-1.55,74,75,8.23,CA,1700934298
510,champerico,14.3,14.3,33.3,65,28,2.24,GT,1700934298
511,concepcion,-36.827,-36.827,16.89,72,0,3.09,CL,1700934298
512,olyokminsk,60.3736,60.3736,-25.59,100,100,1.19,RU,1700934299
513,salalah,17.0151,17.0151,26.05,61,0,2.06,OM,1700934299
514,jijiga,9.35,9.35,17.55,67,100,3.8,ET,1700934299
515,saint-philippe,-21.3585,-21.3585,24.77,78,49,5.48,RE,1700934300
516,boguchany,58.3814,58.3814,-20.24,99,55,1.67,RU,1700934300
517,tual,-5.6667,-5.6667,28.4,75,98,2.37,ID,1700934300
518,mafinga,-7.25,-7.25,25.87,54,99,0.99,TZ,1700934300
519,peterhead,57.5058,57.5058,3.58,69,93,4.46,GB,1700934301
520,imuris,30.7833,30.7833,14.3,56,65,2.34,MX,1700934301
521,nova sintra,14.8667,14.8667,22.73,72,3,8.9,CV,1700934301
522,havelock,34.8791,34.8791,11.1,73,100,7.72,US,1700934302
523,greymouth,-42.4667,-42.4667,7.38,79,0,2.3,NZ,1700934302
524,posto fiscal rolim de moura,-13.0833,-13.0833,34.4,45,97,0.95,BR,1700934303
525,tostado,-29.232,-29.232,23.71,55,96,3.16,AR,1700934303
526,geraldton,-28.7667,-28.7667,21.23,78,100,3.09,AU,1700934303
527,sechura,-5.5569,-5.5569,27.3,53,64,5.17,PE,1700934304
528,sena madureira,-9.0656,-9.0656,28.43,75,97,1.51,BR,1700934304
529,tamanrasset,22.785,22.785,17.95,14,0,2.06,DZ,1700934304
530,peiting,47.8,47.8,-0.02,86,100,10.29,DE,1700934305
531,malyye derbety,47.9547,47.9547,8.86,92,100,4.75,RU,1700934305
532,guaruja,-23.9931,-23.9931,21.02,41,100,1.54,BR,1700934009
533,revda,56.801,56.801,-2.72,94,91,3.07,RU,1700934306
534,cabedelo,-6.9811,-6.9811,31.37,62,66,6.46,BR,1700934306
535,seryshevo,51.0933,51.0933,-23.86,90,9,2.29,RU,1700934306
536,holualoa,19.6228,19.6228,21.59,78,0,2.06,US,1700934306
537,linganore,39.4404,39.4404,5.19,53,0,0.89,US,1700934307
538,flying fish cove,-10.4217,-10.4217,24.82,88,75,2.06,CX,1700934307
539,mojoagung,-7.5667,-7.5667,24.91,89,99,2.57,ID,1700934307
540,kaysville,41.0352,41.0352,2.46,61,0,2.57,US,1700934307
541,selfoss,63.9331,63.9331,5.27,90,100,2.11,IS,1700934308
