City_ID,City,Lat,Lng,Max Temp,Humidity,Cloudiness,Wind Speed,Country,Date
0,iskateley,67.6803,53.1512,-21.68,99,55,2.85,RU,1701053907
1,rodino,52.5,80.25,-0.95,87,100,3.49,RU,1701053907
2,adamstown,-25.066,-130.1015,22.01,85,100,8.62,PN,1701053907
3,la sarre,48.8002,-79.1996,-1.68,97,100,4.0,CA,1701053908
4,malmberget,67.1753,20.6549,-9.69,86,100,1.54,SE,1701053909
5,bethel,41.3712,-73.414,10.57,86,100,7.2,US,1701053909
6,kailua-kona,19.6406,-155.9956,26.98,94,75,5.66,US,1701053909
7,sirjan,29.452,55.6814,8.75,64,0,2.44,IR,1701053909
8,mumbwa,-14.9783,27.0619,18.72,77,71,1.41,ZM,1701053910
9,vadso,70.0744,29.7487,-2.91,63,100,2.57,NO,1701053910
10,port-aux-francais,-49.35,70.2167,3.22,90,100,6.52,TF,1701053910
11,yermakovskoye,53.2831,92.4003,-3.54,97,100,1.2,RU,1701053911
12,touros,-5.1989,-35.4608,24.94,81,1,4.74,BR,1701053911
13,praia da vitoria,38.7333,-27.0667,17.64,100,20,7.0,PT,1701053911
14,baza,37.4907,-2.7726,7.63,68,87,2.21,ES,1701053911
15,tura,25.5198,90.2201,22.93,49,6,0.26,IN,1701053912
16,port mathurin,-19.6833,63.4167,24.87,71,82,7.41,MU,1701053912
17,hawaiian paradise park,19.5933,-154.9731,24.73,84,100,2.06,US,1701053912
18,ilulissat,69.2167,-51.1,-4.01,97,100,3.33,GL,1701053913
19,kodiak,57.79,-152.4072,5.73,81,75,5.14,US,1701053634
20,kapuskasing,49.4169,-82.4331,-1.0,93,100,3.09,CA,1701053913
21,prince rupert,54.3161,-130.3201,6.83,92,100,4.12,CA,1701053914
22,lebu,-37.6167,-73.65,12.54,92,100,4.18,CL,1701053914
23,sinan,34.8262,126.1086,12.06,84,53,7.1,KR,1701053914
24,grytviken,-54.2811,-36.5092,2.07,94,37,4.87,GS,1701053915
25,geraldton,-28.7667,114.6,24.23,53,75,6.17,AU,1701053825
26,kayan,16.9056,96.5631,25.08,63,61,3.83,MM,1701053915
27,altai,46.3722,96.2583,-8.07,69,0,1.26,MN,1701053916
28,kudymkar,59.0173,54.656,-0.31,94,100,2.92,RU,1701053916
29,fuerte olimpo,-21.0415,-57.8738,22.15,93,99,1.75,PY,1701053916
30,edinburgh of the seven seas,-37.0676,-12.3116,13.04,66,16,13.0,SH,1701053917
31,puerto ayora,-0.7393,-90.3518,24.75,92,38,1.34,EC,1701053917
32,shache,38.4167,77.2406,5.02,30,100,0.31,CN,1701053917
33,hasaki,35.7333,140.8333,16.27,62,0,3.74,JP,1701053917
34,dalandzadgad,43.5708,104.425,-8.2,65,21,5.46,MN,1701053918
35,ceerigaabo,10.6162,47.368,13.46,41,63,2.72,SO,1701053918
36,fortuna,40.5982,-124.1573,6.66,90,0,0.0,US,1701053918
37,waitangi,-43.9535,-176.5597,14.9,96,95,10.1,NZ,1701053919
38,punta arenas,-53.15,-70.9167,7.06,65,0,5.66,CL,1701053919
39,akureyri,65.6835,-18.0878,-4.04,93,0,0.0,IS,1701053919
40,constantia,44.1833,28.65,-1.62,77,96,9.43,RO,1701053910
41,puerto natales,-51.7236,-72.4875,2.92,92,7,2.34,CL,1701053920
42,tazovsky,67.4667,78.7,-18.35,97,92,4.19,RU,1701053920
43,ancud,-41.8697,-73.8203,10.52,87,100,2.11,CL,1701053773
44,springbok,-29.6643,17.8865,18.99,24,4,1.62,ZA,1701053921
45,castillos,-34.1667,-53.8333,15.89,96,2,2.95,UY,1701053921
46,felege neway,6.3,36.8833,16.59,79,4,0.19,ET,1701053921
47,remire-montjoly,4.9167,-52.2667,27.02,89,20,0.51,GF,1701053921
48,codrington,-38.2667,141.9667,14.72,63,98,6.31,AU,1701053922
49,roma,43.2128,-75.4557,5.46,94,100,1.54,US,1701053886
50,longboat key,27.4125,-82.659,24.03,68,40,3.09,US,1701053922
51,talnakh,69.4865,88.3972,-23.76,98,44,3.01,RU,1701053922
52,albany,42.6001,-73.9662,6.08,91,100,0.45,US,1701053647
53,menaka,15.9182,2.4022,24.73,13,91,2.72,ML,1701053923
54,thompson,55.7435,-97.8558,-16.91,71,100,2.06,CA,1701053923
55,luderitz,-26.6481,15.1594,20.75,49,0,7.6,NA,1701053923
56,bikenibeu village,1.3673,173.1241,29.98,84,75,1.03,KI,1701053924
57,ushuaia,-54.8,-68.3,5.81,75,40,8.75,AR,1701053701
58,vorgashor,67.5833,63.95,-21.39,100,70,1.69,RU,1701053924
59,qamdo,31.1667,97.2333,-3.71,16,24,0.31,CN,1701053924
60,vernon,50.2581,-119.2691,3.2,86,94,1.03,CA,1701053911
61,chadan,51.2833,91.5833,-13.79,96,99,0.05,RU,1701053925
62,el burgo de osma,41.5862,-3.0652,5.04,74,99,2.41,ES,1701053925
63,khorixas,-20.3667,14.9667,25.16,45,98,1.1,NA,1701053925
64,gisborne,-38.6533,178.0042,16.86,62,0,3.48,NZ,1701053926
65,papatowai,-46.5619,169.4708,13.85,73,100,3.38,NZ,1701053926
66,tamanrasset,22.785,5.5228,12.95,19,0,4.12,DZ,1701053926
67,nema,57.5067,50.5011,-1.26,91,84,3.88,RU,1701053927
68,invercargill,-46.4,168.35,15.57,74,100,1.79,NZ,1701053927
69,harstad,68.799,16.5293,-0.47,96,49,2.68,NO,1701053927
70,vangviang,18.9333,102.45,28.59,50,8,0.35,LA,1701053842
71,khovd,48.0056,91.6419,-6.64,68,14,0.61,MN,1701053927
72,svyetlahorsk,52.6329,29.7389,-3.05,84,100,9.47,BY,1701053928
73,victorica,-36.2151,-65.4359,26.19,26,33,5.26,AR,1701053928
74,whitehorse,60.7161,-135.0538,4.43,75,75,7.2,CA,1701053750
75,ribeira grande,38.5167,-28.7,17.65,95,100,1.79,PT,1701053928
76,blackmans bay,-43.0167,147.3167,14.29,67,11,0.45,AU,1701053929
77,margaret river,-33.95,115.0667,22.03,67,100,4.67,AU,1701053929
78,chipata,-13.6333,32.65,21.09,65,99,1.05,ZM,1701053929
79,peace river,56.2501,-117.286,-2.83,93,75,3.09,CA,1701053929
80,asaita,11.5636,41.4394,23.75,56,38,1.94,ET,1701053929
81,lodja,-3.4833,23.4333,20.61,99,100,0.48,CD,1701053930
82,kaspiyskiy,45.3929,47.3707,7.42,89,78,5.93,RU,1701053930
83,pavlodar,52.3,76.95,-2.11,80,0,5.0,KZ,1701053930
84,isafjordur,66.0755,-23.124,3.92,89,93,4.68,IS,1701053930
85,kristiansund,63.1115,7.732,-1.64,64,2,4.63,NO,1701053931
86,bredasdorp,-34.5322,20.0403,14.91,81,32,0.96,ZA,1701053931
87,vila velha,-20.3297,-40.2925,21.08,98,100,1.54,BR,1701053931
88,aykhal,66.0,111.5,-20.93,99,96,4.26,RU,1701053931
89,aasiaat,68.7098,-52.8699,-5.58,96,100,4.42,GL,1701053932
90,swakopmund,-22.6833,14.5333,15.55,87,81,0.89,NA,1701053932
91,alta,69.9689,23.2717,-8.41,79,100,1.03,NO,1701053932
92,wongsorejo,-7.9908,114.4009,31.52,52,75,2.53,ID,1701053932
93,yellowknife,62.456,-114.3525,-14.71,85,100,2.06,CA,1701053933
94,avarua,-21.2078,-159.775,26.03,69,75,7.2,CK,1701053933
95,mount pearl,47.5166,-52.7813,1.19,85,100,2.57,CA,1701053933
96,thinadhoo,0.5333,72.9333,27.71,75,76,0.78,MV,1701053933
97,tiksi,71.6872,128.8694,-21.59,100,97,2.88,RU,1701053934
98,sorong,-0.8833,131.25,28.68,73,86,3.8,ID,1701053934
99,hithadhoo,-0.6,73.0833,27.87,74,11,2.33,MV,1701053934
100,kirensk,57.7853,108.1119,-16.69,95,100,2.68,RU,1701053934
101,olonkinbyen,70.9221,-8.7187,1.37,84,100,8.18,SJ,1701053934
102,xining,36.6167,101.7667,2.54,27,74,0.56,CN,1701053935
103,badger,64.8,-147.5333,-4.24,93,100,0.0,US,1701053935
104,wailua homesteads,22.0669,-159.378,26.24,87,40,7.2,US,1701053935
105,pogar,52.554,33.2591,-3.49,95,100,9.54,RU,1701053935
106,klyuchi,52.2667,79.1667,-0.13,67,100,3.83,RU,1701053936
107,qaqortoq,60.7167,-46.0333,-9.0,87,66,3.56,GL,1701053936
108,petropavlovsk-kamchatsky,53.0452,158.6483,-3.67,63,75,7.15,RU,1701053936
109,las tablas,7.7667,-80.2833,25.91,87,35,1.73,PA,1701053936
110,atafu village,-8.5421,-172.5159,30.1,75,100,7.06,TK,1701053936
111,kroya,-7.6331,109.2461,29.18,62,100,1.48,ID,1701053937
112,labrador city,52.9463,-66.9114,-5.05,54,20,2.57,CA,1701053937
113,fale old settlement,-9.3852,-171.2468,29.68,76,85,7.39,TK,1701053937
114,al bahah,20.0129,41.4677,13.68,46,99,1.08,SA,1701053938
115,shanhecun,44.7,127.2,-7.66,89,100,1.7,CN,1701053938
116,iqaluit,63.7506,-68.5145,-10.15,79,75,1.03,CA,1701053938
117,masterton,-40.9597,175.6575,14.38,46,13,2.55,NZ,1701053938
118,lihue,21.9789,-159.3672,26.58,84,40,7.2,US,1701053939
119,flying fish cove,-10.4217,105.6791,26.82,69,76,4.63,CX,1701053939
120,isabela,6.7085,121.9711,30.03,66,93,0.57,PH,1701053939
121,arraial do cabo,-22.9661,-42.0278,22.84,80,100,7.5,BR,1701053939
122,pozos de gamboa,22.95,-102.5667,15.6,26,98,1.71,MX,1701053939
123,egilsstadir,65.2653,-14.3948,-0.05,93,0,5.14,IS,1701053940
124,codajas,-3.8367,-62.0569,23.33,92,49,0.23,BR,1701053940
125,kingston,17.997,-76.7936,28.53,70,20,4.12,JM,1701053486
126,kudahuvadhoo,2.6708,72.8944,27.8,74,68,2.14,MV,1701053940
127,okhotsk,59.3833,143.3,-16.13,84,100,7.27,RU,1701053941
128,zouerate,22.7187,-12.4521,16.28,23,5,3.16,MR,1701053941
129,redencao,-4.2258,-38.7306,23.63,83,2,0.86,BR,1701053941
130,alice springs,-23.7,133.8833,30.75,29,0,4.12,AU,1701053741
131,city of balikpapan,-1.242,116.8942,29.97,74,40,1.54,ID,1701053942
132,hamilton,39.1834,-84.5333,4.49,86,100,11.18,US,1701053764
133,porecatu,-22.7558,-51.3792,19.35,93,99,3.03,BR,1701053707
134,pesqueira,-8.3578,-36.6964,19.17,73,0,2.57,BR,1701053943
135,happy valley-goose bay,53.3168,-60.3315,-3.83,74,20,3.09,CA,1701053943
136,dudinka,69.4058,86.1778,-27.46,100,61,2.41,RU,1701053944
137,taksimo,56.3444,114.8794,-17.71,76,99,1.38,RU,1701053944
138,ghazni,33.5536,68.4269,3.89,26,17,2.27,AF,1701053944
139,mundo novo,-11.8589,-40.4725,18.54,97,5,2.01,BR,1701053945
140,cill airne,52.05,-9.5167,8.09,95,72,1.52,IE,1701053945
141,dompu,-8.5356,118.4622,33.96,47,65,2.29,ID,1701053945
142,tromso,69.6496,18.957,-4.99,93,40,1.03,NO,1701053946
143,gaalkacyo,6.7697,47.4308,23.01,78,76,3.06,SO,1701053946
144,grand falls-windsor,48.9332,-55.6649,-0.28,80,87,2.52,CA,1701053947
145,yuanping,38.7153,112.7575,5.28,28,0,9.25,CN,1701053947
146,bilibino,68.0546,166.4372,-12.28,93,12,2.68,RU,1701053947
147,stanley,54.868,-1.6985,3.76,96,75,1.03,GB,1701053948
148,kayangel,8.0823,134.7173,28.32,80,81,6.57,PW,1701053948
149,broome,42.2506,-75.833,5.35,96,100,2.57,US,1701053948
150,aldinga beach,-35.2793,138.4604,25.98,46,1,6.18,AU,1701053948
151,longyearbyen,78.2186,15.6401,2.91,70,40,8.75,SJ,1701053949
152,key largo,25.0865,-80.4473,25.55,87,66,1.89,US,1701053949
153,lepsy,46.235,78.9456,4.41,69,57,6.4,KZ,1701053949
154,ust-nera,64.5667,143.2,-23.27,95,97,3.61,RU,1701053950
155,port lincoln,-34.7333,135.8667,17.38,70,99,8.85,AU,1701053950
156,greymouth,-42.4667,171.2,15.2,76,100,3.01,NZ,1701053744
157,wagar,16.1525,36.2032,24.15,68,89,2.78,SD,1701053951
158,christchurch,-43.5333,172.6333,20.79,60,100,7.72,NZ,1701053349
159,sisimiut,66.9395,-53.6735,-4.16,95,100,4.13,GL,1701053951
160,port elizabeth,-33.918,25.5701,20.73,76,0,5.36,ZA,1701053952
161,betio village,1.358,172.9211,30.02,66,35,1.05,KI,1701053952
162,puerto baquerizo moreno,-0.9,-89.6,24.59,77,54,4.37,EC,1701053912
163,chashniki,54.8569,29.1607,-5.11,93,100,6.86,BY,1701053840
164,fort st. john,56.2499,-120.8529,-0.06,74,75,3.09,CA,1701053953
165,afaahiti,-17.75,-149.2833,27.93,83,97,10.24,PF,1701053953
166,simanggang,1.2472,111.4528,27.99,83,40,2.57,MY,1701053953
167,coahuayana de hidalgo,18.7,-103.6583,24.49,74,100,0.88,MX,1701053954
168,puerto armuelles,8.2833,-82.8667,27.87,82,92,3.13,PA,1701053954
169,timaru,-44.4,171.25,17.26,66,100,3.13,NZ,1701053954
170,dutsen wai,10.8501,8.199,18.74,87,30,1.16,NG,1701053955
171,west island,-12.1568,96.8225,28.99,58,75,4.63,CC,1701053955
172,new plymouth,-39.0667,174.0833,15.73,51,71,5.58,NZ,1701053955
173,narrabri,-30.3167,149.7833,34.18,31,67,1.34,AU,1701053956
174,saldanha,-33.0117,17.9442,16.03,87,4,5.58,ZA,1701053956
175,gadzhiyevo,69.2551,33.3362,-16.26,94,44,3.0,RU,1701053956
176,eseka,3.65,10.7667,22.97,99,91,0.64,CM,1701053956
177,hwange,-18.3693,26.5019,23.99,44,21,1.56,ZW,1701053957
178,burley,42.5357,-113.7928,-13.17,85,20,0.0,US,1701053738
179,wynyard,-41.0,145.7167,11.69,81,100,2.6,AU,1701053957
180,veraval,20.9,70.3667,22.97,76,1,2.89,IN,1701053958
181,yurty,56.0498,97.6348,-17.12,90,16,1.53,RU,1701053958
182,seaside,36.6111,-121.8516,13.73,51,0,1.54,US,1701053726
183,aginskoye,51.1,114.53,-13.71,75,16,5.84,RU,1701053959
184,boguchany,58.3814,97.4531,-20.82,92,6,0.74,RU,1701053959
185,namibe,-15.1961,12.1522,23.04,81,100,1.73,AO,1701053661
186,polyarnyy,69.1989,33.4478,-15.93,92,30,3.03,RU,1701053959
187,el calafate,-50.3408,-72.2768,6.92,59,51,1.68,AR,1701053960
188,howrah,22.5892,88.3103,22.0,83,40,0.0,IN,1701053960
189,douz,33.4663,9.0203,12.82,53,0,3.63,TN,1701053960
190,pundong,-7.9522,110.3486,30.46,55,57,3.69,ID,1701053961
191,sysert',56.4953,60.8192,-1.01,87,100,2.7,RU,1701053961
192,rawson,-43.3002,-65.1023,13.79,49,83,6.9,AR,1701053961
193,college,64.8569,-147.8028,-4.19,92,75,0.0,US,1701053962
194,kupang,-10.1667,123.5833,33.32,58,40,3.6,ID,1701053962
195,bantay,17.5847,120.3892,29.42,78,89,1.79,PH,1701053962
196,rosalie,15.3667,-61.2667,24.82,69,0,4.3,DM,1701053962
197,lompoc,34.6391,-120.4579,14.08,59,0,2.06,US,1701053851
198,haiku-pauwela,20.9219,-156.3051,25.01,73,40,8.23,US,1701053963
199,safi,32.1667,-8.8333,12.12,82,12,2.86,MA,1701053963
200,thai binh,20.45,106.3333,26.05,53,9,2.4,VN,1701053964
201,moree,-29.4667,149.85,31.06,36,72,1.09,AU,1701053964
202,demyansk,57.643,32.466,-6.69,87,100,3.83,RU,1701053964
203,soio,-6.1349,12.3689,26.29,87,100,2.92,AO,1701053965
204,gobabis,-22.45,18.9667,24.49,32,44,4.11,NA,1701053965
205,santa cruz,-17.8,-63.1667,24.7,88,75,4.12,BO,1701053666
206,st. john's,47.5649,-52.7093,1.65,84,100,2.57,CA,1701053966
207,yeppoon,-23.1333,150.7333,23.88,73,100,5.18,AU,1701053966
208,nikol'sk,53.7189,46.0712,0.11,90,100,5.74,RU,1701053966
209,dunedin,-45.8742,170.5036,13.22,75,100,1.34,NZ,1701053967
210,antonio enes,-16.2325,39.9086,25.05,85,74,0.97,MZ,1701053967
211,concepcion,-36.827,-73.0498,13.89,94,100,5.14,CL,1701053775
212,utrik,11.2278,169.8474,27.85,74,88,9.02,MH,1701053968
213,alofi,-19.0595,-169.9187,28.94,74,19,5.66,NU,1701053968
214,kaa-khem,51.6833,94.7333,-12.0,94,100,0.87,RU,1701053968
215,stourport-on-severn,52.35,-2.2667,9.55,97,100,3.29,GB,1701053968
216,luanda,-8.8368,13.2343,26.0,89,75,1.54,AO,1701053691
217,new norfolk,-42.7826,147.0587,14.95,35,9,2.39,AU,1701053969
218,tionk essil,12.7856,-16.5217,20.03,73,0,2.51,SN,1701053969
219,suva,-18.1416,178.4415,27.71,74,75,4.12,FJ,1701053970
220,zadar,44.1197,15.2422,2.34,69,20,2.06,HR,1701053970
221,chonchi,-42.6128,-73.8092,10.56,86,100,0.24,CL,1701053970
222,chateaubelair,13.2833,-61.25,25.89,76,57,4.39,VC,1701053971
223,sao vicente,-23.9631,-46.3919,23.48,26,75,1.02,BR,1701053971
224,kyelang,32.5833,77.0333,-1.7,68,100,2.27,IN,1701053971
225,dubbo,-32.25,148.6167,32.07,29,40,6.17,AU,1701053971
226,arteche,12.2645,125.4048,27.97,81,91,3.0,PH,1701053972
227,trincomalee,8.5711,81.2335,27.25,83,100,5.94,LK,1701053972
228,minas novas,-17.2186,-42.5903,20.29,72,5,2.12,BR,1701053689
229,weno,7.4515,151.8468,30.97,79,75,5.14,FM,1701053973
230,nowshahr,36.649,51.496,12.97,62,0,0.0,IR,1701053973
231,tolanaro,-25.0319,46.9987,23.04,94,0,1.03,MG,1701053973
232,georgetown,5.4112,100.3354,28.96,83,20,2.06,MY,1701053974
233,duki,30.1541,68.5728,11.72,39,8,1.47,PK,1701053974
234,livny,52.4253,37.6069,3.21,85,100,8.14,RU,1701053974
235,miyako,39.6367,141.9525,7.47,92,100,0.15,JP,1701053974
236,mount gambier,-37.8333,140.7667,14.85,63,97,4.91,AU,1701053975
237,saint-pierre,-21.3393,55.4781,23.82,60,0,3.6,RE,1701053975
238,boende,-0.2167,20.8667,19.99,97,99,1.11,CD,1701053975
239,brokopondo,4.75,-55.1667,24.87,86,82,4.11,SR,1701053976
240,rio grande,-32.035,-52.0986,21.08,83,35,7.18,BR,1701053976
241,revda,56.801,59.9303,-0.94,78,99,3.1,RU,1701053977
242,laguna,38.421,-121.4238,11.16,55,0,0.0,US,1701053928
243,novyy urengoy,66.0833,76.6333,-14.54,97,90,3.46,RU,1701053977
244,east london,-33.0153,27.9116,20.21,89,2,1.75,ZA,1701053978
245,acarau,-2.8856,-40.12,26.67,69,0,6.25,BR,1701053978
246,stockheim,50.3,11.2667,2.41,95,100,1.79,DE,1701053978
247,stephenville,32.2207,-98.2023,4.96,67,0,0.0,US,1701053979
248,nar'yan-mar,67.6713,53.087,-21.7,99,57,2.83,RU,1701053979
249,lazaro cardenas,17.9583,-102.2,26.22,73,100,1.45,MX,1701053979
250,amarastii de jos,43.95,24.1667,-0.01,70,12,9.43,RO,1701053979
251,itoman,26.1247,127.6694,25.43,67,75,6.17,JP,1701053980
252,highfields,-27.4518,151.9463,26.31,62,100,2.43,AU,1701053980
253,mejit,10.2753,170.8646,27.55,79,100,9.83,MH,1701053980
254,puerto palomas,31.7667,-107.6167,10.45,46,91,5.11,MX,1701053981
255,nova sintra,14.8667,-24.7167,22.44,64,82,5.23,CV,1701053981
256,lerwick,60.1545,-1.1494,6.0,73,82,14.05,GB,1701053981
257,san mateo del mar,16.2,-95.0,27.56,74,5,11.52,MX,1701053981
258,aswan,24.0934,32.907,18.61,39,0,2.06,EG,1701053982
259,nyurba,63.2842,118.3319,-16.0,91,100,4.21,RU,1701053982
260,tofol,5.3248,163.0078,29.88,74,75,4.63,FM,1701053982
261,anapa,44.8908,37.3239,5.2,86,75,9.0,RU,1701053982
262,tucuma,-0.1833,-50.05,24.4,93,98,2.51,BR,1701053761
263,mawlaik,23.6333,94.4167,22.14,55,46,1.22,MM,1701053983
264,gagra,43.3283,40.2239,6.51,84,100,2.72,GE,1701053983
265,hovd,48.0056,91.6419,-6.64,68,14,0.61,MN,1701053983
266,belyy yar,53.6039,91.3903,-5.06,93,75,2.0,RU,1701053984
267,mogadishu,2.0371,45.3438,26.3,82,100,5.08,SO,1701053984
268,kruisfontein,-34.0033,24.7314,16.26,80,0,2.92,ZA,1701053984
269,anloga,5.7947,0.8973,26.71,77,98,3.17,GH,1701053984
270,zhangatas,43.5667,69.75,10.36,29,99,0.68,KZ,1701053985
271,novodvinsk,64.4165,40.8122,-18.75,97,19,1.81,RU,1701053985
272,hammerfest,70.6634,23.6821,-1.75,74,100,1.03,NO,1701053985
273,caska,41.6506,21.6622,-3.71,83,3,2.09,MK,1701053985
274,amahai,-3.3333,128.9167,29.32,70,97,1.22,ID,1701053985
275,lorengau,-2.0226,147.2712,29.98,68,47,2.33,PG,1701053986
276,saipan,15.1355,145.701,31.39,66,40,10.29,MP,1701053986
277,nuuk,64.1835,-51.7216,-4.94,88,99,4.62,GL,1701053986
278,thayetmyo,19.3167,95.1833,25.52,62,32,3.63,MM,1701053987
279,yarmouth,41.7057,-70.2286,9.03,87,100,5.66,US,1701053987
280,la'ie,21.6477,-157.9253,26.98,80,100,1.79,US,1701053987
281,meulaboh,4.1363,96.1285,26.95,77,93,1.26,ID,1701053987
282,sitka,57.0531,-135.33,7.99,94,100,4.08,US,1701053987
283,machico,32.7,-16.7667,19.35,77,40,2.57,PT,1701053988
284,grand-bassam,5.2118,-3.7388,23.98,94,100,2.44,CI,1701053988
285,fort bragg,35.139,-79.006,8.85,92,100,2.57,US,1701053988
286,nakambala,-15.8324,27.7799,19.53,81,33,0.38,ZM,1701053988
287,taltal,-25.4,-70.4833,17.51,77,15,2.03,CL,1701053989
288,chibougamau,49.9168,-74.3659,-3.21,93,100,5.66,CA,1701053698
289,palikir - national government center,6.9248,158.1611,31.47,74,75,7.2,FM,1701053989
290,marsa alam,25.0757,34.8918,23.61,33,7,6.18,EG,1701053989
291,ha'il,27.5219,41.6907,14.01,58,0,3.09,SA,1701053989
292,cockburn town,21.4612,-71.1419,26.94,73,0,8.18,TC,1701053990
293,kapa'a,22.0752,-159.319,26.99,89,100,1.34,US,1701053990
294,bairnsdale,-37.8333,147.6167,18.92,85,97,3.13,AU,1701053990
295,kenai,60.5544,-151.2583,1.19,98,100,2.06,US,1701053856
296,nemuro,43.3236,145.575,3.68,52,97,2.94,JP,1701053991
297,shingu,33.7333,135.9833,17.25,61,5,1.79,JP,1701053991
298,ibarreta,-25.2144,-59.8585,22.39,98,99,1.92,AR,1701053991
299,shimoda,34.6667,138.95,15.2,59,0,5.46,JP,1701053991
300,kaiapoi,-43.3783,172.6401,20.87,66,100,7.72,NZ,1701053992
301,port augusta,-32.5,137.7667,31.73,24,10,5.43,AU,1701053992
302,olyokminsk,60.3736,120.4264,-17.02,87,100,4.91,RU,1701053992
303,birsk,55.4211,55.5428,-1.79,78,72,2.79,RU,1701053992
304,princeville,45.7668,-61.2985,0.44,85,0,2.57,CA,1701053982
305,dongtai,32.8523,120.3095,14.58,42,0,6.59,CN,1701053993
306,uturoa,-16.7333,-151.4333,26.44,81,15,8.48,PF,1701053993
307,leava,-14.3,-178.1667,29.05,79,25,6.97,WF,1701053993
308,tsiombe,-25.3,45.4833,22.87,86,3,1.87,MG,1701053993
309,voinjama,8.4219,-9.7478,19.74,99,51,0.33,LR,1701053994
310,vila franca do campo,37.7167,-25.4333,19.23,99,83,6.54,PT,1701053994
311,alexandria,31.2156,29.9553,16.3,57,100,9.14,EG,1701053699
312,proletarsk,46.7031,41.7192,7.3,62,100,8.85,RU,1701053994
313,byakabanda,-0.7425,31.4064,16.83,99,100,1.39,UG,1701053995
314,callao,-12.0667,-77.15,22.07,73,0,6.17,PE,1701053995
315,tazacorte,28.629,-17.9293,18.54,75,0,3.09,ES,1701053995
316,itacarambi,-15.1022,-44.0919,24.34,65,28,1.87,BR,1701053995
317,labytnangi,66.6572,66.4183,-24.22,100,81,0.79,RU,1701053996
318,solwezi,-12.1688,26.3894,16.5,98,97,1.43,ZM,1701053996
319,sao joao da barra,-21.6403,-41.0511,23.12,78,100,4.12,BR,1701053996
320,tateyama,34.9833,139.8667,14.98,68,2,3.19,JP,1701053996
321,queenstown,-31.8976,26.8753,15.91,96,0,0.57,ZA,1701053646
322,manati,18.4275,-66.4921,26.49,93,56,4.24,PR,1701053997
323,sao francisco de assis,-29.5503,-55.1311,20.65,91,72,2.51,BR,1701053997
324,hudson,40.7168,-74.0663,12.27,86,100,13.41,US,1701053897
325,bozuyuk,39.9078,30.0367,-2.09,83,89,2.1,TR,1701053997
326,saint-francois,46.4154,3.9054,0.36,100,100,1.03,FR,1701053998
327,grand gaube,-20.0064,57.6608,25.77,81,16,0.89,MU,1701053718
328,yukhnov,54.7444,35.2297,-2.57,94,100,7.2,RU,1701053998
329,puerto aysen,-45.4,-72.7,7.75,83,83,0.51,CL,1701053998
330,obihiro,42.9172,143.2044,4.67,45,73,0.26,JP,1701053999
331,zharkent,44.1628,80.0,6.87,42,20,0.34,KZ,1701053999
332,puerto la cruz,10.2167,-64.6167,25.32,85,0,1.86,VE,1701053999
333,pekanbaru,0.5333,101.45,25.18,94,75,0.0,ID,1701053999
334,sinabang,2.4803,96.3801,27.64,73,83,2.04,ID,1701053999
335,susuman,62.7833,148.1667,-20.86,98,100,2.05,RU,1701054000
336,goianira,-16.4961,-49.4264,21.9,90,100,0.18,BR,1701054000
337,emerald,-23.5333,148.1667,27.94,62,100,4.64,AU,1701053796
338,manay,7.215,126.5397,30.14,67,15,4.33,PH,1701054002
339,balqash,46.8481,74.995,0.33,69,0,7.0,KZ,1701054006
340,buala,-8.145,159.5921,28.33,79,99,2.87,SB,1701054010
341,qianzhou,28.3167,109.7167,18.69,71,0,0.87,CN,1701054011
342,palmer,42.1584,-72.3287,7.14,81,75,1.79,US,1701054012
343,sidi salim,31.271,30.7867,19.27,61,100,11.31,EG,1701054013
344,ouarzazat,30.9189,-6.8934,5.16,16,0,1.54,MA,1701054014
345,hepo,23.4308,115.8299,24.62,48,2,1.85,CN,1701054014
346,priozersk,61.0393,30.1291,-2.72,85,100,4.41,RU,1701054015
347,anadyr,64.75,177.4833,2.28,93,40,14.0,RU,1701054015
348,san patricio,28.017,-97.5169,14.35,40,100,4.7,US,1701054016
349,bodaybo,57.8506,114.1933,-17.37,94,100,0.99,RU,1701054017
350,kavalerovo,44.2661,135.0572,-3.03,60,85,0.89,RU,1701054017
351,conception bay south,47.4999,-52.9981,1.52,86,99,3.11,CA,1701054018
352,puerto deseado,-47.7503,-65.8938,9.12,48,6,5.7,AR,1701054019
353,santana,-0.0583,-51.1817,28.1,83,100,3.09,BR,1701054019
354,huinan,42.6225,126.2614,-4.79,89,100,3.0,CN,1701054020
355,barra de santo antonio,-9.4047,-35.5072,24.6,84,0,0.06,BR,1701054020
356,berezivka,47.2043,30.9078,-1.92,77,100,10.91,UA,1701054021
357,vilyuchinsk,52.9306,158.4028,-2.85,69,38,7.94,RU,1701054022
358,morinville,53.8001,-113.652,-0.12,88,0,2.57,CA,1701054023
359,tralee,52.2704,-9.7026,10.94,86,100,5.92,IE,1701054024
360,ust'-kulom,61.6864,53.6902,-3.93,96,100,3.0,RU,1701054025
361,colonia,50.9333,6.95,5.07,82,100,3.09,DE,1701054006
362,portland,45.5234,-122.6762,8.99,60,20,5.66,US,1701053979
363,hermanus,-34.4187,19.2345,15.84,70,7,1.6,ZA,1701054027
364,champerico,14.3,-91.9167,26.85,77,5,3.86,GT,1701054027
365,xai-xai,-25.0519,33.6442,23.49,88,75,0.46,MZ,1701054028
366,tommot,58.9564,126.2925,-20.19,92,100,4.98,RU,1701054028
367,ghormach,35.7306,63.7826,13.95,40,58,0.8,AF,1701054029
368,viedma,-40.8135,-62.9967,14.03,51,100,7.12,AR,1701054030
369,babu,24.4167,111.5167,22.3,57,1,1.94,CN,1701054031
370,ulaangom,49.9811,92.0667,-11.27,86,43,1.3,MN,1701053829
371,worland,44.0169,-107.9554,-8.51,89,73,1.4,US,1701054032
372,udachny,66.4167,112.4,-20.96,99,100,2.87,RU,1701054033
373,quellon,-43.1167,-73.6167,9.99,73,100,0.98,CL,1701054035
374,santander,43.4647,-3.8044,12.48,86,20,3.09,ES,1701054037
375,muroto-misakicho,33.2833,134.15,14.97,88,100,0.32,JP,1701054039
376,padang,-0.9492,100.3543,29.03,72,100,1.51,ID,1701054040
377,holualoa,19.6228,-155.9522,22.65,94,95,2.42,US,1701054041
378,trairi,-3.2778,-39.2689,26.41,72,7,4.5,BR,1701053888
379,bereznik,62.8551,42.7072,-14.41,92,97,2.26,RU,1701054041
380,oakdale,44.963,-92.9649,-3.8,56,20,6.17,US,1701053767
381,najaf,31.9985,44.3398,18.36,60,76,2.19,IQ,1701054043
382,jayapura,-2.5333,140.7,30.66,76,100,1.95,ID,1701054044
383,krasnosilka,46.6226,30.7742,-1.84,83,100,11.47,UA,1701054045
384,mihaileni,47.9667,26.15,-0.51,100,100,8.94,RO,1701054045
385,ghat,24.9647,10.1728,14.25,29,2,2.35,LY,1701054046
386,pacasmayo,-7.4006,-79.5714,18.27,90,100,5.69,PE,1701054046
387,chatham,51.3789,0.5279,10.6,77,100,3.13,GB,1701054046
388,swift current,50.2834,-107.8014,-3.55,93,100,12.35,CA,1701054039
389,bamboo flat,11.7,92.7167,29.05,79,75,4.12,IN,1701054047
390,cromer,52.9312,1.2989,5.08,94,100,1.65,GB,1701054047
391,marsh harbour,26.5412,-77.0636,25.32,86,78,5.25,BS,1701054048
392,mariental,-24.6333,17.9667,28.46,29,61,3.27,NA,1701054048
393,akjoujt,19.6969,-14.4164,19.65,19,0,3.92,MR,1701054049
394,kargil,34.5667,76.1,0.29,31,100,1.03,IN,1701054050
395,rio de janeiro,-22.9028,-43.2075,24.41,71,40,4.12,BR,1701053502
396,black river,18.0264,-77.8487,24.35,96,58,1.14,JM,1701054051
397,kaliganj,23.4095,89.1402,24.2,55,6,2.27,BD,1701054051
398,eenhana,-17.4667,16.3333,23.06,66,99,1.72,NA,1701054051
399,lamitan city,6.6608,122.1408,29.98,69,68,0.72,PH,1701054051
400,alaghsas,17.0187,8.0168,24.3,18,79,3.79,NE,1701054052
401,enewetak,11.3474,162.3373,28.02,80,27,10.08,MH,1701054053
402,ravar,31.2656,56.8055,10.28,45,0,1.89,IR,1701054053
403,benguela,-12.5763,13.4055,26.38,82,100,4.25,AO,1701054053
404,jiangkou,25.4872,119.1986,25.09,43,0,0.7,CN,1701054054
405,tabou,4.423,-7.3528,25.2,89,89,2.76,CI,1701054054
406,al ghayzah,16.2079,52.176,24.96,69,13,0.8,YE,1701054054
407,verkhnevilyuysk,63.4453,120.3167,-16.14,90,100,3.78,RU,1701054055
408,nizao,18.25,-70.2,26.93,89,19,4.17,DO,1701054055
409,la passe,45.5549,-0.8967,4.13,69,100,2.73,FR,1701054056
410,maun,-19.9833,23.4167,26.03,34,3,4.78,BW,1701054056
411,al qadarif,14.0349,35.3834,25.12,36,2,4.17,SD,1701054056
412,yemetsk,63.4721,41.7941,-17.94,97,40,2.24,RU,1701054056
413,as sulayyil,20.4607,45.5779,19.14,45,54,2.33,SA,1701054057
414,benoy,8.9833,16.3199,25.18,32,100,1.11,TD,1701054057
415,mahina,-17.5065,-149.489,28.87,65,75,4.63,PF,1701054057
416,tsengel,49.4783,100.8894,-11.61,76,45,2.31,MN,1701054058
417,piacabucu,-10.4056,-36.4344,21.83,84,0,1.84,BR,1701054058
418,khandyga,62.6667,135.6,-30.85,94,100,0.4,RU,1701054058
419,tejen,37.3834,60.5054,14.34,22,0,3.0,TM,1701054058
420,lata,40.1629,-8.3327,14.34,96,63,0.84,PT,1701054058
421,andergrove,-21.0833,149.1833,28.69,60,100,4.64,AU,1701054059
422,toliara,-23.35,43.6667,23.35,85,0,1.91,MG,1701054059
423,warwick,41.7001,-71.4162,9.6,86,100,5.66,US,1701054059
424,los llanos de aridane,28.6585,-17.9182,16.86,75,0,3.09,ES,1701054059
425,novo aripuana,-5.1206,-60.3797,23.52,86,36,1.03,BR,1701054060
426,montepuez,-13.1256,38.9997,21.11,87,13,0.32,MZ,1701054060
427,kota,25.1833,75.8333,17.97,72,29,1.08,IN,1701053767
428,galle,6.0367,80.217,26.76,81,61,3.19,LK,1701054060
429,moundou,8.5667,16.0833,25.17,32,99,1.35,TD,1701054060
430,mazagao,-0.115,-51.2894,28.03,95,100,1.47,BR,1701054061
431,jamestown,42.097,-79.2353,4.77,97,100,4.12,US,1701053920
432,sechura,-5.5569,-80.8222,20.99,72,100,6.15,PE,1701054061
433,ola,59.5833,151.2833,-16.4,75,100,5.86,RU,1701054062
434,uporovo,56.3109,66.2693,0.54,97,100,5.45,RU,1701054062
435,xique xique,-10.8217,-42.7311,26.25,54,0,5.87,BR,1701054063
436,reitz,-27.8014,28.4273,16.48,73,3,2.55,ZA,1701054063
437,gagliano del capo,39.8442,18.3695,5.68,75,6,4.12,IT,1701054064
438,trujillo,-8.116,-79.03,18.98,88,100,5.14,PE,1701054064
439,saudarkrokur,65.7461,-19.6394,2.33,88,85,4.49,IS,1701054065
440,khandud,36.9513,72.318,-2.44,78,57,1.86,AF,1701054065
441,qulsary,46.9531,54.0198,5.04,81,0,5.45,KZ,1701054066
442,san julian,21.0167,-102.1667,15.11,37,100,1.3,MX,1701054067
443,lashio,22.9333,97.75,20.72,55,12,0.43,MM,1701054067
444,pisco,-13.7,-76.2167,19.45,82,0,5.66,PE,1701054068
445,nagqu,31.5,92.0,-7.81,36,84,1.95,CN,1701054068
446,hassi messaoud,31.6804,6.0729,7.92,46,0,0.51,DZ,1701054069
447,port douglas,-16.4833,145.4667,27.74,69,63,2.96,AU,1701054069
448,cidreira,-30.1811,-50.2056,20.67,86,7,8.42,BR,1701054070
449,souillac,-20.5167,57.5167,23.21,94,75,1.54,MU,1701054065
450,neuotting,48.2333,12.7,1.07,97,82,2.3,DE,1701054070
451,al hasaheisa,14.7526,33.2984,26.71,29,11,3.58,SD,1701054071
452,neon karlovasion,37.7903,26.7044,11.06,50,94,10.2,GR,1701054071
453,smirnykh,49.75,142.8333,-7.75,56,81,6.11,RU,1701054072
454,karaisali,37.2567,35.0589,12.37,61,70,5.36,TR,1701054072
455,bayganin,48.6947,55.8742,1.86,74,12,8.49,KZ,1701054073
456,malango,-2.9627,119.9001,26.65,75,90,1.31,ID,1701054073
457,inhambane,-23.865,35.3833,22.33,90,4,1.4,MZ,1701054073
458,perry,37.2506,-83.1999,10.1,86,100,5.61,US,1701054074
459,mogocha,53.7333,119.7667,-18.19,64,41,1.0,RU,1701054075
460,ilebo,-4.3167,20.5833,21.27,98,100,0.81,CD,1701054075
461,kiffa,16.6166,-11.4045,21.64,16,0,3.79,MR,1701054076
462,chilecito,-29.1619,-67.4974,22.68,46,19,2.29,AR,1701054076
463,kandiari,26.9156,68.5216,17.96,52,3,3.56,PK,1701054077
464,port blair,11.6667,92.75,29.02,79,75,4.12,IN,1701054077
465,semenov,56.7875,44.493,1.96,98,100,4.09,RU,1701054077
466,cuamba,-14.8031,36.5372,23.37,63,96,1.29,MZ,1701054078
467,almazan,41.4865,-2.5309,4.32,74,100,2.59,ES,1701054078
468,ad douiem,14.0012,32.3116,28.0,26,11,3.69,SD,1701054079
469,whangarei,-35.7317,174.3239,21.36,45,83,1.71,NZ,1701054079
470,pleiku,13.9833,108.0,24.57,55,100,4.29,VN,1701054080
471,mavoor,11.2667,75.9167,26.3,73,20,3.09,IN,1701054081
472,kone,-21.0595,164.8658,27.6,54,97,2.24,NC,1701054082
473,kavieng,-2.5744,150.7967,29.04,72,91,2.61,PG,1701054082
474,chui,-33.6971,-53.4616,16.38,94,0,2.9,UY,1701054083
475,carutapera,-1.195,-46.02,25.4,84,100,2.55,BR,1701054083
476,ichinoseki,38.9167,141.1333,7.31,90,100,0.84,JP,1701054084
477,manicore,-5.8092,-61.3003,23.57,90,82,0.73,BR,1701054084
478,huillapima,-28.7253,-65.9787,27.53,60,81,6.25,AR,1701054085
479,kyakhta,50.3508,106.4494,-14.89,77,56,2.14,RU,1701054085
480,vorkuta,67.5,64.0,-21.44,100,67,1.59,RU,1701054086
481,bitkine,11.9801,18.2138,24.91,25,45,2.77,TD,1701054086
482,pervomayskoye,43.919,46.7102,9.78,78,76,9.56,RU,1701054087
483,mendoza,-32.8908,-68.8272,24.74,41,20,0.0,AR,1701054083
484,dangriga,16.9692,-88.2321,26.57,86,5,2.61,BZ,1701054088
485,duba,27.3513,35.6901,22.96,48,0,4.37,SA,1701054089
486,witu,-2.3889,40.4382,24.09,91,99,1.91,KE,1701054089
487,paracuru,-3.41,-39.0306,27.28,74,8,4.71,BR,1701054090
488,crucecita,-28.95,-58.9833,23.85,82,100,3.23,AR,1701054090
489,babayevo,59.3936,35.9371,-7.87,83,100,4.84,RU,1701054090
490,coquimbo,-29.9533,-71.3436,14.85,88,100,1.54,CL,1701054026
491,phalodi,27.1333,72.3667,16.89,72,94,5.43,IN,1701054091
492,verkh-chebula,56.0308,87.6218,-6.87,96,97,3.11,RU,1701054091
493,pangody,65.85,74.4859,-17.79,99,83,3.29,RU,1701054092
494,tangalle,6.024,80.7911,27.09,78,56,5.36,LK,1701054092
495,mount isa,-20.7333,139.5,32.87,40,100,4.12,AU,1701054019
496,villa gesell,-37.2639,-56.973,16.91,82,0,5.94,AR,1701054093
497,myeik,12.4333,98.6,27.75,69,98,2.44,MM,1701054093
498,yigo village,13.5361,144.8886,30.18,78,75,7.72,GU,1701054094
499,punta del este,-34.9667,-54.95,20.06,87,0,3.6,UY,1701054094
500,maintirano,-18.0667,44.0167,27.22,76,50,1.56,MG,1701054095
501,tuy hoa,13.0833,109.3,25.51,81,100,7.36,VN,1701054095
502,soure,-0.7167,-48.5233,26.65,80,99,4.28,BR,1701054095
503,phayakkhaphum phisai,15.5163,103.1937,29.2,53,94,8.03,TH,1701054096
504,katsuura,35.1333,140.3,14.63,71,4,2.6,JP,1701054096
505,el matama,16.7095,33.3565,25.65,43,36,4.45,SD,1701054097
506,tual,-5.6667,132.75,27.68,79,94,4.19,ID,1701054097
507,summit,41.1167,-81.5332,6.07,88,100,1.34,US,1701054098
508,molteno,-31.3968,26.3625,16.06,89,0,2.34,ZA,1701054098
509,brak,27.5496,14.2714,12.28,56,6,4.14,LY,1701054098
510,pasuquin,18.3328,120.6177,30.97,66,20,4.63,PH,1701054099
511,caleta de carquin,-11.0925,-77.6267,19.53,83,72,4.48,PE,1701054099
512,arkhangel'sk,64.5401,40.5433,-18.48,97,17,1.79,RU,1701054099
513,fort mcmurray,56.7268,-111.381,-6.23,86,100,1.03,CA,1701054000
514,bafoulabe,13.8065,-10.8321,24.94,18,1,1.5,ML,1701054100
515,rafraf,37.1904,10.1837,10.18,70,0,3.71,TN,1701054101
516,eregli,37.5133,34.0467,0.95,91,99,1.99,TR,1701054101
517,anna regina,7.2644,-58.5077,26.47,81,100,3.49,GY,1701054101
518,nuku'alofa,-21.1333,-175.2,29.19,79,20,5.14,TO,1701054102
519,hualien city,23.9769,121.6044,24.54,72,44,3.93,TW,1701054102
520,iturama,-19.7281,-50.1956,23.6,82,53,1.55,BR,1701054102
521,kismayo,-0.3582,42.5454,27.2,76,98,2.55,SO,1701054103
522,newman,37.3138,-121.0208,8.92,51,96,1.1,US,1701054104
523,lang son,21.8333,106.7333,25.26,53,18,1.78,VN,1701054105
524,tadine,-21.55,167.8833,25.1,58,29,4.11,NC,1701054105
525,santiago del estero,-27.7951,-64.2615,23.22,83,100,3.76,AR,1701054105
526,guiyang,26.5833,106.7167,8.27,100,100,1.0,CN,1701054106
527,pirajui,-21.9986,-49.4572,20.24,90,57,2.57,BR,1701054106
528,jaguarari,-10.2639,-40.1958,20.03,57,0,3.85,BR,1701054106
529,crane,31.3974,-102.3501,7.41,32,86,3.29,US,1701054107
530,bukama,-9.2,25.85,20.5,97,100,0.54,CD,1701054107
531,olavarria,-36.8927,-60.3225,20.97,43,7,4.19,AR,1701054107
532,gustavia,17.8962,-62.8498,26.53,74,45,2.68,BL,1701054091
533,zhangye,38.9342,100.4517,4.28,33,14,0.54,CN,1701054108
534,datong,40.0936,113.2914,0.28,37,0,8.12,CN,1701054108
535,arar,30.9753,41.0381,15.01,51,0,5.66,SA,1701054108
536,behshahr,36.6923,53.5526,8.97,29,1,4.19,IR,1701054108
537,foca,38.6703,26.7566,7.93,67,11,4.65,TR,1701054109
538,thaba nchu,-29.2093,26.839,20.08,35,0,2.39,ZA,1701054109
539,mayya,61.7333,130.2811,-25.38,91,100,2.18,RU,1701054109
540,uhersky brod,49.0251,17.6472,0.22,97,100,1.41,CZ,1701054110
541,antsiranana,-12.2787,49.2917,25.48,76,97,5.26,MG,1701054110
542,raychikhinsk,49.7838,129.4121,-17.42,87,42,1.36,RU,1701054110
543,dondo,-19.6094,34.7431,24.73,96,92,0.98,MZ,1701054110
544,ventspils,57.3894,21.5606,-7.04,100,0,0.51,LV,1701054111
545,angaur state,6.906,134.13,28.85,77,93,5.81,PW,1701054111
546,san juan de miraflores,-12.1629,-76.9635,21.21,77,34,3.13,PE,1701054111
547,mubende,0.5606,31.39,16.51,100,100,1.02,UG,1701054112
548,kovin,44.7475,20.9761,0.64,78,19,3.74,RS,1701054112
549,manaus,-3.1019,-60.025,25.27,88,0,0.51,BR,1701053951
550,carnot,4.9409,15.8665,22.32,79,89,0.26,CF,1701054113
551,kharp,66.8014,65.8081,-21.35,100,36,1.31,RU,1701054113
552,moussoro,13.6408,16.4901,25.64,21,97,5.58,TD,1701054113
553,salinopolis,-0.6136,-47.3561,26.54,80,98,4.37,BR,1701054114
554,akrehamn,59.2667,5.1833,4.67,86,100,8.58,NO,1701054114
555,guerrero negro,27.9769,-114.0611,19.01,62,25,3.38,MX,1701054114
556,skagen,57.7209,10.5839,1.67,72,45,6.33,DK,1701054114
557,broken hill,-31.95,141.4333,30.37,24,90,4.15,AU,1701054115
558,luganville,-15.5333,167.1667,28.65,71,45,5.43,VU,1701054115
559,achinsk,56.2694,90.4993,-8.23,96,93,1.79,RU,1701054115
560,rongelap,11.1635,166.8941,27.9,77,14,9.24,MH,1701054116
561,yuzhno-kurilsk,44.0306,145.8556,2.99,51,97,0.93,RU,1701054116
562,galliano,29.4422,-90.2992,15.0,77,0,2.57,US,1701054117
563,neiafu,-18.65,-173.9833,30.38,70,40,4.12,TO,1701054117
564,keflavik,64.0049,-22.5624,6.24,93,75,9.26,IS,1701054118
565,taoudenni,22.6783,-3.9836,16.67,22,0,3.73,ML,1701054118
566,ballina,-28.8667,153.5667,31.55,63,71,5.45,AU,1701054118
567,northam,51.0333,-4.2167,13.7,96,100,7.33,GB,1701054119
568,bel ombre,-4.6167,55.4167,26.91,83,20,1.54,SC,1701054119
569,grandview,38.8858,-94.533,0.36,99,5,3.49,US,1701054000
570,nogliki,51.8333,143.1667,-13.7,76,0,6.26,RU,1701054120
571,dryden,49.7833,-92.7503,-13.84,78,100,4.12,CA,1701054073
572,san antonio de pale,-1.4014,5.6325,26.74,80,62,3.35,GQ,1701054120
573,flin flon,54.7682,-101.865,-17.27,93,43,2.52,CA,1701054121
574,stjordalshalsen,63.4681,10.9262,-15.0,85,20,2.57,NO,1701054121
575,green river,41.5286,-109.4662,-4.9,62,5,0.45,US,1701054122
576,sitia,35.2,26.0986,13.88,55,86,9.44,GR,1701054122
577,khulm,36.6974,67.6983,15.45,25,97,1.01,AF,1701054123
578,lubang,13.8584,120.124,28.05,77,88,7.71,PH,1701054123
579,darhan,49.4867,105.9228,-13.33,84,10,2.76,MN,1701054124
580,la ronge,55.1001,-105.2842,-13.86,72,75,1.03,CA,1701054124
